index,province_zh,province_en,city_zh,city_short_zh,admin_type_zh,division_code,city_en,wiki_title_zh,wiki_title_en,lat,lon,slug,catalog_id,source_station_wmo,source_station_file,source_station_name,source_station_lat,source_station_lon,station_match_quality
1,河北省,Hebei,石家庄市,石家庄,地级市,130100,石家庄,石家庄市,,38.044,114.5139,city-hebei,prefecture-city-hebei,536980,CHN_HE_Shijiazhuang.536980_TMYx.2011-2025.zip,Shijiazhuang,38.0733,114.3513,province_capital_fallback
2,河北省,Hebei,唐山市,唐山,地级市,130200,Tangshan,唐山市,Tangshan,39.631,118.179,tangshan,prefecture-tangshan,545340,CHN_HE_Tangshan.545340_TMYx.2011-2025.zip,Tangshan,39.5816,118.0931,direct
3,河北省,Hebei,秦皇岛市,秦皇岛,地级市,130300,Qinhuangdao,秦皇岛市,Qinhuangdao,39.936,119.6,qinhuangdao,prefecture-qinhuangdao,545270,CHN_TJ_Tianjin.545270_TMYx.2011-2025.zip,Tianjin,39.0812,117.0525,city_alias_fallback
4,河北省,Hebei,邯郸市,邯郸,地级市,130400,Handan,邯郸市,Handan,36.6258,114.5388,handan,prefecture-handan,536980,CHN_HE_Shijiazhuang.536980_TMYx.2011-2025.zip,Shijiazhuang,38.0733,114.3513,province_capital_fallback
5,河北省,Hebei,邢台市,邢台,地级市,130500,邢台,邢台市,,37.07,114.505,city-hebei-2,prefecture-city-hebei-2,536980,CHN_HE_Shijiazhuang.536980_TMYx.2011-2025.zip,Shijiazhuang,38.0733,114.3513,province_capital_fallback
6,河北省,Hebei,保定市,保定,地级市,130600,保定,保定市,,38.8745,115.4645,city-hebei-3,prefecture-city-hebei-3,536980,CHN_HE_Shijiazhuang.536980_TMYx.2011-2025.zip,Shijiazhuang,38.0733,114.3513,province_capital_fallback
7,河北省,Hebei,张家口市,张家口,地级市,130700,Zhangjiakou,张家口市,Zhangjiakou,40.7675,114.8858,zhangjiakou,prefecture-zhangjiakou,544010,CHN_HE_Zhangjiakou.544010_TMYx.2011-2025.zip,Zhangjiakou,40.7694,114.9194,direct
8,河北省,Hebei,承德市,承德,地级市,130800,承德,承德市,,40.953,117.963,city-hebei-4,prefecture-city-hebei-4,545110,CHN_BJ_Beijing.545110_CSWD.zip,Beijing-Capital.Intl.AP,40.08,116.585,city_alias_fallback
9,河北省,Hebei,沧州市,沧州,地级市,130900,沧州,沧州市,,38.3045,116.8386,city-hebei-5,prefecture-city-hebei-5,545270,CHN_TJ_Tianjin.545270_TMYx.2011-2025.zip,Tianjin,39.0812,117.0525,city_alias_fallback
10,河北省,Hebei,廊坊市,廊坊,地级市,131000,廊坊,廊坊市,,39.538,116.684,city-hebei-6,prefecture-city-hebei-6,545110,CHN_BJ_Beijing.545110_CSWD.zip,Beijing-Capital.Intl.AP,40.08,116.585,city_alias_fallback
11,河北省,Hebei,衡水市,衡水,地级市,131100,衡水,衡水市,,37.739,115.67,city-hebei-7,prefecture-city-hebei-7,536980,CHN_HE_Shijiazhuang.536980_TMYx.2011-2025.zip,Shijiazhuang,38.0733,114.3513,city_alias_fallback
12,山西省,Shanxi,太原市,太原,地级市,140100,太原,太原市,,37.86666667,112.55,city-shanxi,prefecture-city-shanxi,537720,CHN_SX_Taiyuan.537720_TMYx.2011-2025.zip,Taiyuan,37.6206,112.5764,province_capital_fallback
13,山西省,Shanxi,大同市,大同,地级市,140200,大同,大同市,,40.0763,113.2999,city-shanxi-2,prefecture-city-shanxi-2,537720,CHN_SX_Taiyuan.537720_TMYx.2011-2025.zip,Taiyuan,37.6206,112.5764,province_capital_fallback
14,山西省,Shanxi,阳泉市,阳泉,地级市,140300,阳泉,阳泉市,,37.8573,113.5804,city-shanxi-3,prefecture-city-shanxi-3,537720,CHN_SX_Taiyuan.537720_TMYx.2011-2025.zip,Taiyuan,37.6206,112.5764,city_alias_fallback
15,山西省,Shanxi,长治市,长治,地级市,140400,长治,长治市,,36.1953,113.1163,city-shanxi-4,prefecture-city-shanxi-4,537720,CHN_SX_Taiyuan.537720_TMYx.2011-2025.zip,Taiyuan,37.6206,112.5764,city_alias_fallback
16,山西省,Shanxi,晋城市,晋城,地级市,140500,晋城,晋城市,,35.4895,112.8516,city-shanxi-5,prefecture-city-shanxi-5,537720,CHN_SX_Taiyuan.537720_TMYx.2011-2025.zip,Taiyuan,37.6206,112.5764,city_alias_fallback
17,山西省,Shanxi,朔州市,朔州,地级市,140600,朔州,朔州市,,39.3308,112.432,city-shanxi-6,prefecture-city-shanxi-6,534870,CHN_SX_Datong.534870_TMYx.2011-2025.zip,Datong,40.0787,113.4116,city_alias_fallback
18,山西省,Shanxi,晋中市,晋中,地级市,140700,晋中,晋中市,,37.6874,112.7516,city-shanxi-7,prefecture-city-shanxi-7,537720,CHN_SX_Taiyuan.537720_TMYx.2011-2025.zip,Taiyuan,37.6206,112.5764,city_alias_fallback
19,山西省,Shanxi,运城市,运城,地级市,140800,运城,运城市,,35.0264,111.0076,city-shanxi-8,prefecture-city-shanxi-8,537720,CHN_SX_Taiyuan.537720_TMYx.2011-2025.zip,Taiyuan,37.6206,112.5764,city_alias_fallback
20,山西省,Shanxi,忻州市,忻州,地级市,140900,忻州,忻州市,,38.4163,112.7341,city-shanxi-9,prefecture-city-shanxi-9,537720,CHN_SX_Taiyuan.537720_TMYx.2011-2025.zip,Taiyuan,37.6206,112.5764,city_alias_fallback
21,山西省,Shanxi,临汾市,临汾,地级市,141000,临汾,临汾市,,36.088,111.519,city-shanxi-10,prefecture-city-shanxi-10,537720,CHN_SX_Taiyuan.537720_TMYx.2011-2025.zip,Taiyuan,37.6206,112.5764,city_alias_fallback
22,山西省,Shanxi,吕梁市,吕梁,地级市,141100,吕梁,吕梁市,,37.5184,111.144,city-shanxi-11,prefecture-city-shanxi-11,537720,CHN_SX_Taiyuan.537720_TMYx.2011-2025.zip,Taiyuan,37.6206,112.5764,city_alias_fallback
23,内蒙古自治区,Inner Mongolia,呼和浩特市,呼和浩特,地级市,150100,Hohhot,呼和浩特市,Hohhot,40.8421,111.7503,hohhot,prefecture-hohhot,534630,CHN_NM_Hohhot.534630_CSWD.zip,Hohhot,40.81667,111.6833,direct
24,内蒙古自治区,Inner Mongolia,包头市,包头,地级市,150200,Baotou,包头市,Baotou,40.658,109.8402,baotou,prefecture-baotou,534460,CHN_NM_Baotou.534460_TMYx.zip,Baotou,40.567,109.983,direct
25,内蒙古自治区,Inner Mongolia,乌海市,乌海,地级市,150300,乌海,乌海市,,39.655,106.7942,city-inner-mongolia,prefecture-city-inner-mongolia,534630,CHN_NM_Hohhot.534630_CSWD.zip,Hohhot,40.81667,111.6833,city_alias_fallback
26,内蒙古自治区,Inner Mongolia,赤峰市,赤峰,地级市,150400,赤峰,赤峰市,,42.2579,118.887,city-inner-mongolia-2,prefecture-city-inner-mongolia-2,534630,CHN_NM_Hohhot.534630_CSWD.zip,Hohhot,40.81667,111.6833,city_alias_fallback
27,内蒙古自治区,Inner Mongolia,通辽市,通辽,地级市,150500,通辽,通辽市,,43.6527,122.2436,city-inner-mongolia-3,prefecture-city-inner-mongolia-3,534630,CHN_NM_Hohhot.534630_CSWD.zip,Hohhot,40.81667,111.6833,city_alias_fallback
28,内蒙古自治区,Inner Mongolia,鄂尔多斯市,鄂尔多斯,地级市,150600,鄂尔多斯,鄂尔多斯市,,39.6082,109.7814,city-inner-mongolia-4,prefecture-city-inner-mongolia-4,534630,CHN_NM_Hohhot.534630_CSWD.zip,Hohhot,40.81667,111.6833,city_alias_fallback
29,内蒙古自治区,Inner Mongolia,呼伦贝尔市,呼伦贝尔,地级市,150700,呼伦贝尔,呼伦贝尔市,,49.2118,119.7657,city-inner-mongolia-5,prefecture-city-inner-mongolia-5,534630,CHN_NM_Hohhot.534630_CSWD.zip,Hohhot,40.81667,111.6833,city_alias_fallback
30,内蒙古自治区,Inner Mongolia,巴彦淖尔市,巴彦淖尔,地级市,150800,巴彦淖尔,巴彦淖尔市,,40.7433,107.3876,city-inner-mongolia-6,prefecture-city-inner-mongolia-6,534630,CHN_NM_Hohhot.534630_CSWD.zip,Hohhot,40.81667,111.6833,city_alias_fallback
31,内蒙古自治区,Inner Mongolia,乌兰察布市,乌兰察布,地级市,150900,乌兰察布,乌兰察布市,,40.995,113.132,city-inner-mongolia-7,prefecture-city-inner-mongolia-7,534630,CHN_NM_Hohhot.534630_CSWD.zip,Hohhot,40.81667,111.6833,city_alias_fallback
32,内蒙古自治区,Inner Mongolia,兴安盟,兴安,盟,152200,兴安,兴安盟,,46.0824,122.0375,city-inner-mongolia-8,prefecture-city-inner-mongolia-8,534630,CHN_NM_Hohhot.534630_CSWD.zip,Hohhot,40.81667,111.6833,province_capital_fallback
33,内蒙古自治区,Inner Mongolia,锡林郭勒盟,锡林郭勒,盟,152500,锡林郭勒,锡林郭勒盟,,43.9335,116.0477,city-inner-mongolia-9,prefecture-city-inner-mongolia-9,534630,CHN_NM_Hohhot.534630_CSWD.zip,Hohhot,40.81667,111.6833,province_capital_fallback
34,内蒙古自治区,Inner Mongolia,阿拉善盟,阿拉善,盟,152900,阿拉善,阿拉善盟,,38.852,105.728,city-inner-mongolia-10,prefecture-city-inner-mongolia-10,534630,CHN_NM_Hohhot.534630_CSWD.zip,Hohhot,40.81667,111.6833,province_capital_fallback
35,辽宁省,Liaoning,沈阳市,沈阳,地级市,210100,Shenyang,沈阳市,Shenyang,41.79555556,123.44805556,shenyang,prefecture-shenyang,543420,CHN_LN_Shenyang.543420_TMYx.2011-2025.zip,Shenyang,41.7325,123.5099,direct
36,辽宁省,Liaoning,大连市,大连,地级市,210200,Dalian,大连市,Dalian,38.92083333,121.63916667,dalian,prefecture-dalian,546620,CHN_LN_Dalian.546620_CSWD.zip,Dalian-Zhoushuizi.Intl.AP,38.908,121.66,direct
37,辽宁省,Liaoning,鞍山市,鞍山,地级市,210300,Anshan,鞍山市,Anshan,41.1083,122.9933,anshan,prefecture-anshan,543390,CHN_LN_Anshan.543390_TMYx.zip,Anshan,41.133,122.983,direct
38,辽宁省,Liaoning,抚顺市,抚顺,地级市,210400,Fushun,抚顺市,Fushun,41.8806,123.957,fushun,prefecture-fushun,543420,CHN_LN_Shenyang.543420_TMYx.2011-2025.zip,Shenyang,41.7325,123.5099,city_alias_fallback
39,辽宁省,Liaoning,本溪市,本溪,地级市,210500,本溪,本溪市,,41.2942,123.7655,city-liaoning,prefecture-city-liaoning,543420,CHN_LN_Shenyang.543420_TMYx.2011-2025.zip,Shenyang,41.7325,123.5099,city_alias_fallback
40,辽宁省,Liaoning,丹东市,丹东,地级市,210600,丹东,丹东市,,40.0005,124.3539,city-liaoning-2,prefecture-city-liaoning-2,543420,CHN_LN_Shenyang.543420_TMYx.2011-2025.zip,Shenyang,41.7325,123.5099,city_alias_fallback
41,辽宁省,Liaoning,锦州市,锦州,地级市,210700,锦州,锦州市,,41.0957,121.1264,city-liaoning-3,prefecture-city-liaoning-3,543420,CHN_LN_Shenyang.543420_TMYx.2011-2025.zip,Shenyang,41.7325,123.5099,city_alias_fallback
42,辽宁省,Liaoning,营口市,营口,地级市,210800,营口,营口市,,40.6679,122.2344,city-liaoning-4,prefecture-city-liaoning-4,543420,CHN_LN_Shenyang.543420_TMYx.2011-2025.zip,Shenyang,41.7325,123.5099,city_alias_fallback
43,辽宁省,Liaoning,阜新市,阜新,地级市,210900,阜新,阜新市,,42.0216,121.6696,city-liaoning-5,prefecture-city-liaoning-5,543420,CHN_LN_Shenyang.543420_TMYx.2011-2025.zip,Shenyang,41.7325,123.5099,city_alias_fallback
44,辽宁省,Liaoning,辽阳市,辽阳,地级市,211000,辽阳,辽阳市,,41.2673,123.237,city-liaoning-6,prefecture-city-liaoning-6,543420,CHN_LN_Shenyang.543420_TMYx.2011-2025.zip,Shenyang,41.7325,123.5099,city_alias_fallback
45,辽宁省,Liaoning,盘锦市,盘锦,地级市,211100,盘锦,盘锦市,,41.12,122.0709,city-liaoning-7,prefecture-city-liaoning-7,543420,CHN_LN_Shenyang.543420_TMYx.2011-2025.zip,Shenyang,41.7325,123.5099,city_alias_fallback
46,辽宁省,Liaoning,铁岭市,铁岭,地级市,211200,铁岭,铁岭市,,42.2238,123.7259,city-liaoning-8,prefecture-city-liaoning-8,543420,CHN_LN_Shenyang.543420_TMYx.2011-2025.zip,Shenyang,41.7325,123.5099,city_alias_fallback
47,辽宁省,Liaoning,朝阳市,朝阳,地级市,211300,朝阳,朝阳市,,41.5736,120.4494,city-liaoning-9,prefecture-city-liaoning-9,543420,CHN_LN_Shenyang.543420_TMYx.2011-2025.zip,Shenyang,41.7325,123.5099,city_alias_fallback
48,辽宁省,Liaoning,葫芦岛市,葫芦岛,地级市,211400,葫芦岛,葫芦岛市,,40.711,120.837,city-liaoning-10,prefecture-city-liaoning-10,543420,CHN_LN_Shenyang.543420_TMYx.2011-2025.zip,Shenyang,41.7325,123.5099,city_alias_fallback
49,吉林省,Jilin,长春市,长春,地级市,220100,Changchun,长春市,Changchun,43.88458056,125.31843056,changchun,prefecture-changchun,541610,CHN_JL_Changchun.541610_TMYx.2011-2025.zip,Changchun,43.901,125.209,direct
50,吉林省,Jilin,吉林市,吉林,地级市,220200,吉林,吉林市,,43.836,126.55,city-jilin,prefecture-city-jilin,541610,CHN_JL_Changchun.541610_TMYx.2011-2025.zip,Changchun,43.901,125.209,province_capital_fallback
51,吉林省,Jilin,四平市,四平,地级市,220300,四平,四平市,,43.166,124.35,city-jilin-2,prefecture-city-jilin-2,541610,CHN_JL_Changchun.541610_TMYx.2011-2025.zip,Changchun,43.901,125.209,city_alias_fallback
52,吉林省,Jilin,辽源市,辽源,地级市,220400,辽源,辽源市,,42.888,125.144,city-jilin-3,prefecture-city-jilin-3,541610,CHN_JL_Changchun.541610_TMYx.2011-2025.zip,Changchun,43.901,125.209,city_alias_fallback
53,吉林省,Jilin,通化市,通化,地级市,220500,通化,通化市,,41.728,125.94,city-jilin-4,prefecture-city-jilin-4,541610,CHN_JL_Changchun.541610_TMYx.2011-2025.zip,Changchun,43.901,125.209,city_alias_fallback
54,吉林省,Jilin,白山市,白山,地级市,220600,白山,白山市,,,,city-jilin-5,prefecture-city-jilin-5,541610,CHN_JL_Changchun.541610_TMYx.2011-2025.zip,Changchun,43.901,125.209,city_alias_fallback
55,吉林省,Jilin,松原市,松原,地级市,220700,松原,松原市,,,,city-jilin-6,prefecture-city-jilin-6,541610,CHN_JL_Changchun.541610_TMYx.2011-2025.zip,Changchun,43.901,125.209,city_alias_fallback
56,吉林省,Jilin,白城市,白城,地级市,220800,白城,白城市,,45.62,122.839,city-jilin-7,prefecture-city-jilin-7,541610,CHN_JL_Changchun.541610_TMYx.2011-2025.zip,Changchun,43.901,125.209,city_alias_fallback
57,吉林省,Jilin,延边朝鲜族自治州,延边朝鲜族,自治州,222400,延边朝鲜族,延边朝鲜族自治州,,42.891,129.509,city-jilin-8,prefecture-city-jilin-8,541610,CHN_JL_Changchun.541610_TMYx.2011-2025.zip,Changchun,43.901,125.209,province_capital_fallback
58,黑龙江省,Heilongjiang,哈尔滨市,哈尔滨,地级市,230100,Harbin,哈尔滨市,Harbin,45.80138889,126.52916667,harbin,prefecture-harbin,509530,CHN_HL_Harbin.509530_TMYx.2011-2025.zip,Harbin,45.934,126.581,direct
59,黑龙江省,Heilongjiang,齐齐哈尔市,齐齐哈尔,地级市,230200,Qiqihar,齐齐哈尔市,Qiqihar,47.3536,123.9185,qiqihar,prefecture-qiqihar,507450,CHN_HL_Qiqihar.507450_CSWD.zip,Qiqihar,47.38333,123.9167,direct
60,黑龙江省,Heilongjiang,鸡西市,鸡西,地级市,230300,Jixi,鸡西市,Jixi,45.2956,130.969,jixi,prefecture-jixi,509780,CHN_HL_Jixi.509780_TMYx.2011-2025.zip,Jixi,45.305,130.9089,direct
61,黑龙江省,Heilongjiang,鹤岗市,鹤岗,地级市,230400,Hegang,鹤岗市,Hegang,47.35,130.298,hegang,prefecture-hegang,507750,CHN_HL_Hegang.507750_TMYx.zip,Hegang,47.3483,130.3045,direct
62,黑龙江省,Heilongjiang,双鸭山市,双鸭山,地级市,230500,双鸭山,双鸭山市,,46.646,131.1586,city-heilongjiang,prefecture-city-heilongjiang,509530,CHN_HL_Harbin.509530_TMYx.2011-2025.zip,Harbin,45.934,126.581,city_alias_fallback
63,黑龙江省,Heilongjiang,大庆市,大庆,地级市,230600,Daqing,大庆市,Daqing,46.589,125.104,daqing,prefecture-daqing,509530,CHN_HL_Harbin.509530_TMYx.2011-2025.zip,Harbin,45.934,126.581,city_alias_fallback
64,黑龙江省,Heilongjiang,伊春市,伊春,地级市,230700,伊春,伊春市,,47.7276,128.8406,city-heilongjiang-2,prefecture-city-heilongjiang-2,509530,CHN_HL_Harbin.509530_TMYx.2011-2025.zip,Harbin,45.934,126.581,city_alias_fallback
65,黑龙江省,Heilongjiang,佳木斯市,佳木斯,地级市,230800,佳木斯,佳木斯市,,46.8,130.318,city-heilongjiang-3,prefecture-city-heilongjiang-3,509530,CHN_HL_Harbin.509530_TMYx.2011-2025.zip,Harbin,45.934,126.581,city_alias_fallback
66,黑龙江省,Heilongjiang,七台河市,七台河,地级市,230900,七台河,七台河市,,45.772,131.0017,city-heilongjiang-4,prefecture-city-heilongjiang-4,509530,CHN_HL_Harbin.509530_TMYx.2011-2025.zip,Harbin,45.934,126.581,city_alias_fallback
67,黑龙江省,Heilongjiang,牡丹江市,牡丹江,地级市,231000,牡丹江,牡丹江市,,44.552,129.633,city-heilongjiang-5,prefecture-city-heilongjiang-5,509530,CHN_HL_Harbin.509530_TMYx.2011-2025.zip,Harbin,45.934,126.581,city_alias_fallback
68,黑龙江省,Heilongjiang,黑河市,黑河,地级市,231100,黑河,黑河市,,50.245,127.528,city-heilongjiang-6,prefecture-city-heilongjiang-6,509530,CHN_HL_Harbin.509530_TMYx.2011-2025.zip,Harbin,45.934,126.581,city_alias_fallback
69,黑龙江省,Heilongjiang,绥化市,绥化,地级市,231200,绥化,绥化市,,46.654,126.969,city-heilongjiang-7,prefecture-city-heilongjiang-7,509530,CHN_HL_Harbin.509530_TMYx.2011-2025.zip,Harbin,45.934,126.581,city_alias_fallback
70,黑龙江省,Heilongjiang,大兴安岭地区,大兴安岭,地区,232700,大兴安岭,大兴安岭地区,,,,city-heilongjiang-8,prefecture-city-heilongjiang-8,509530,CHN_HL_Harbin.509530_TMYx.2011-2025.zip,Harbin,45.934,126.581,province_capital_fallback
71,江苏省,Jiangsu,南京市,南京,地级市,320100,Nanjing,南京市,Nanjing,32.04388889,118.77861111,nanjing,prefecture-nanjing,582380,CHN_JS_Nanjing.582380_TMYx.2011-2025.zip,Nanjing,31.9316,118.8996,direct
72,江苏省,Jiangsu,无锡市,无锡,地级市,320200,Wuxi,无锡市,Wuxi,31.49,120.313,wuxi,prefecture-wuxi,583580,CHN_JS_Suzhou.583580_TMYx.zip,Suzhou,31.267,120.617,city_alias_fallback
73,江苏省,Jiangsu,徐州市,徐州,地级市,320300,徐州,徐州市,,34.205,117.283,city-jiangsu,prefecture-city-jiangsu,582380,CHN_JS_Nanjing.582380_TMYx.2011-2025.zip,Nanjing,31.9316,118.8996,province_capital_fallback
74,江苏省,Jiangsu,常州市,常州,地级市,320400,常州,常州市,,31.81,119.976,city-jiangsu-2,prefecture-city-jiangsu-2,582380,CHN_JS_Nanjing.582380_TMYx.2011-2025.zip,Nanjing,31.9316,118.8996,province_capital_fallback
75,江苏省,Jiangsu,苏州市,苏州,地级市,320500,Suzhou,苏州市,Suzhou,31.3,120.61666667,suzhou,prefecture-suzhou,583580,CHN_JS_Suzhou.583580_TMYx.zip,Suzhou,31.267,120.617,city_alias_fallback
76,江苏省,Jiangsu,南通市,南通,地级市,320600,Nantong,南通市,Nantong,31.98,120.895,nantong,prefecture-nantong,548525,CHN_JS_Nantong.548525_TMYx.2011-2025.zip,Nantong,32.02,120.85,direct
77,江苏省,Jiangsu,连云港市,连云港,地级市,320700,连云港,连云港市,,34.597,119.222,city-jiangsu-3,prefecture-city-jiangsu-3,580270,CHN_JS_Xuzhou.580270_TMYx.2011-2025.zip,Xuzhou,34.2871,117.1587,city_alias_fallback
78,江苏省,Jiangsu,淮安市,淮安,地级市,320800,淮安,淮安市,,33.55,119.114,city-jiangsu-4,prefecture-city-jiangsu-4,582380,CHN_JS_Nanjing.582380_TMYx.2011-2025.zip,Nanjing,31.9316,118.8996,city_alias_fallback
79,江苏省,Jiangsu,盐城市,盐城,地级市,320900,盐城,盐城市,,33.347,120.164,city-jiangsu-5,prefecture-city-jiangsu-5,582380,CHN_JS_Nanjing.582380_TMYx.2011-2025.zip,Nanjing,31.9316,118.8996,province_capital_fallback
80,江苏省,Jiangsu,扬州市,扬州,地级市,321000,扬州,扬州市,,32.393,119.415,city-jiangsu-6,prefecture-city-jiangsu-6,582380,CHN_JS_Nanjing.582380_TMYx.2011-2025.zip,Nanjing,31.9316,118.8996,city_alias_fallback
81,江苏省,Jiangsu,镇江市,镇江,地级市,321100,镇江,镇江市,,32.188,119.428,city-jiangsu-7,prefecture-city-jiangsu-7,582380,CHN_JS_Nanjing.582380_TMYx.2011-2025.zip,Nanjing,31.9316,118.8996,city_alias_fallback
82,江苏省,Jiangsu,泰州市,泰州,地级市,321200,泰州,泰州市,,32.455,119.923,city-jiangsu-8,prefecture-city-jiangsu-8,582380,CHN_JS_Nanjing.582380_TMYx.2011-2025.zip,Nanjing,31.9316,118.8996,city_alias_fallback
83,江苏省,Jiangsu,宿迁市,宿迁,地级市,321300,宿迁,宿迁市,,33.9624,118.2757,city-jiangsu-9,prefecture-city-jiangsu-9,580270,CHN_JS_Xuzhou.580270_TMYx.2011-2025.zip,Xuzhou,34.2871,117.1587,city_alias_fallback
84,浙江省,Zhejiang,杭州市,杭州,地级市,330100,Hangzhou,杭州市,Hangzhou,30.24916667,120.20527778,hangzhou,prefecture-hangzhou,584570,CHN_ZJ_Hangzhou.584570_TMYx.2011-2025.zip,Hangzhou,30.2259,120.1649,direct
85,浙江省,Zhejiang,宁波市,宁波,地级市,330200,Ningbo,宁波市,Ningbo,29.86361111,121.62083333,ningbo,prefecture-ningbo,585620,CHN_ZJ_Ningbo.585620_TMYx.zip,Ningbo,29.917,121.467,direct
86,浙江省,Zhejiang,温州市,温州,地级市,330300,Wenzhou,温州市,Wenzhou,27.993,120.699,wenzhou,prefecture-wenzhou,586590,CHN_ZJ_Wenzhou.586590_TMYx.2007-2021.zip,Wenzhou,28.017,120.667,direct
87,浙江省,Zhejiang,嘉兴市,嘉兴,地级市,330400,嘉兴,嘉兴市,,30.754,120.759,city-zhejiang,prefecture-city-zhejiang,584570,CHN_ZJ_Hangzhou.584570_TMYx.2011-2025.zip,Hangzhou,30.2259,120.1649,city_alias_fallback
88,浙江省,Zhejiang,湖州市,湖州,地级市,330500,湖州,湖州市,,30.894,120.087,city-zhejiang-2,prefecture-city-zhejiang-2,584570,CHN_ZJ_Hangzhou.584570_TMYx.2011-2025.zip,Hangzhou,30.2259,120.1649,city_alias_fallback
89,浙江省,Zhejiang,绍兴市,绍兴,地级市,330600,Shaoxing,绍兴市,Shaoxing,29.995,120.586,shaoxing,prefecture-shaoxing,584570,CHN_ZJ_Hangzhou.584570_TMYx.2011-2025.zip,Hangzhou,30.2259,120.1649,city_alias_fallback
90,浙江省,Zhejiang,金华市,金华,地级市,330700,金华,金华市,,29.0788,119.6475,city-zhejiang-3,prefecture-city-zhejiang-3,585540,CHN_ZJ_Yi.Wu.585540_TMYx.zip,Yi.Wu,29.35,120.017,city_alias_fallback
91,浙江省,Zhejiang,衢州市,衢州,地级市,330800,衢州,衢州市,,28.97,118.86,city-zhejiang-4,prefecture-city-zhejiang-4,584570,CHN_ZJ_Hangzhou.584570_TMYx.2011-2025.zip,Hangzhou,30.2259,120.1649,city_alias_fallback
92,浙江省,Zhejiang,舟山市,舟山,地级市,330900,舟山,舟山市,,29.9852,122.2077,city-zhejiang-5,prefecture-city-zhejiang-5,585620,CHN_ZJ_Ningbo.585620_TMYx.zip,Ningbo,29.917,121.467,city_alias_fallback
93,浙江省,Zhejiang,台州市,台州,地级市,331000,台州,台州市,,28.6556,121.4216,city-zhejiang-6,prefecture-city-zhejiang-6,585620,CHN_ZJ_Ningbo.585620_TMYx.zip,Ningbo,29.917,121.467,city_alias_fallback
94,浙江省,Zhejiang,丽水市,丽水,地级市,331100,丽水,丽水市,,28.467,119.923,city-zhejiang-7,prefecture-city-zhejiang-7,586590,CHN_ZJ_Wenzhou.586590_TMYx.2007-2021.zip,Wenzhou,28.017,120.667,city_alias_fallback
95,安徽省,Anhui,合肥市,合肥,地级市,340100,Hefei,合肥市,Hefei,,,hefei,prefecture-hefei,583210,CHN_AH_Hefei.583210_TMYx.2011-2025.zip,Hefei,31.9555,117.0574,direct
96,安徽省,Anhui,芜湖市,芜湖,地级市,340200,芜湖,芜湖市,,31.353,118.433,city-anhui,prefecture-city-anhui,583210,CHN_AH_Hefei.583210_TMYx.2011-2025.zip,Hefei,31.9555,117.0574,province_capital_fallback
97,安徽省,Anhui,蚌埠市,蚌埠,地级市,340300,Bengbu,蚌埠市,Bengbu,,,bengbu,prefecture-bengbu,582210,CHN_AH_Bengbu.AP.582210_TMYx.2011-2025.zip,Bengbu.AP,32.852,117.3207,direct
98,安徽省,Anhui,淮南市,淮南,地级市,340400,淮南,淮南市,,32.625,117.0,city-anhui-2,prefecture-city-anhui-2,583210,CHN_AH_Hefei.583210_TMYx.2011-2025.zip,Hefei,31.9555,117.0574,province_capital_fallback
99,安徽省,Anhui,马鞍山市,马鞍山,地级市,340500,马鞍山,马鞍山市,,31.67,118.506,city-anhui-3,prefecture-city-anhui-3,583210,CHN_AH_Hefei.583210_TMYx.2011-2025.zip,Hefei,31.9555,117.0574,province_capital_fallback
100,安徽省,Anhui,淮北市,淮北,地级市,340600,淮北,淮北市,,33.9565,116.7977,city-anhui-4,prefecture-city-anhui-4,583210,CHN_AH_Hefei.583210_TMYx.2011-2025.zip,Hefei,31.9555,117.0574,province_capital_fallback
101,安徽省,Anhui,铜陵市,铜陵,地级市,340700,铜陵,铜陵市,,30.9455,117.8115,city-anhui-5,prefecture-city-anhui-5,583210,CHN_AH_Hefei.583210_TMYx.2011-2025.zip,Hefei,31.9555,117.0574,province_capital_fallback
102,安徽省,Anhui,安庆市,安庆,地级市,340800,Anqing,安庆市,Anqing,30.532,117.115,anqing,prefecture-anqing,584240,CHN_AH_Anqing.584240_TMYx.2011-2025.zip,Anqing,30.6231,116.9673,direct
103,安徽省,Anhui,黄山市,黄山,地级市,341000,Huangshan City,黄山市,Huangshan City,29.7148,118.3375,huangshan-city,prefecture-huangshan-city,584370,CHN_AH_Huang.Shan.584370_TMYx.2011-2025.zip,Huang.Shan,30.1347,118.1642,direct
104,安徽省,Anhui,滁州市,滁州,地级市,341100,滁州,滁州市,,32.2535,118.3283,city-anhui-6,prefecture-city-anhui-6,583210,CHN_AH_Hefei.583210_TMYx.2011-2025.zip,Hefei,31.9555,117.0574,province_capital_fallback
105,安徽省,Anhui,阜阳市,阜阳,地级市,341200,阜阳,阜阳市,,32.889,115.814,city-anhui-7,prefecture-city-anhui-7,583210,CHN_AH_Hefei.583210_TMYx.2011-2025.zip,Hefei,31.9555,117.0574,province_capital_fallback
106,安徽省,Anhui,宿州市,宿州,地级市,341300,宿州,宿州市,,33.6464,116.9639,city-anhui-8,prefecture-city-anhui-8,583210,CHN_AH_Hefei.583210_TMYx.2011-2025.zip,Hefei,31.9555,117.0574,province_capital_fallback
107,安徽省,Anhui,六安市,六安,地级市,341500,六安,六安市,,31.7344,116.5214,city-anhui-9,prefecture-city-anhui-9,583210,CHN_AH_Hefei.583210_TMYx.2011-2025.zip,Hefei,31.9555,117.0574,province_capital_fallback
108,安徽省,Anhui,亳州市,亳州,地级市,341600,Bozhou,亳州市,Bozhou,33.845,115.778,bozhou,prefecture-bozhou,583210,CHN_AH_Hefei.583210_TMYx.2011-2025.zip,Hefei,31.9555,117.0574,province_capital_fallback
109,安徽省,Anhui,池州市,池州,地级市,341700,池州,池州市,,30.676533,117.494118,city-anhui-10,prefecture-city-anhui-10,583210,CHN_AH_Hefei.583210_TMYx.2011-2025.zip,Hefei,31.9555,117.0574,province_capital_fallback
110,安徽省,Anhui,宣城市,宣城,地级市,341800,宣城,宣城市,,30.94,118.758,city-anhui-11,prefecture-city-anhui-11,583210,CHN_AH_Hefei.583210_TMYx.2011-2025.zip,Hefei,31.9555,117.0574,province_capital_fallback
111,福建省,Fujian,福州市,福州,地级市,350100,Fuzhou,福州市,Fuzhou,26.15,119.28333333,fuzhou,prefecture-fuzhou,588470,CHN_FJ_Fuzhou.588470_TMYx.2011-2025.zip,Fuzhou,26.0776,119.289,direct
112,福建省,Fujian,厦门市,厦门,地级市,350200,厦门,厦门市,,,,city-fujian,prefecture-city-fujian,588470,CHN_FJ_Fuzhou.588470_TMYx.2011-2025.zip,Fuzhou,26.0776,119.289,province_capital_fallback
113,福建省,Fujian,莆田市,莆田,地级市,350300,莆田,莆田市,,25.453,119.008,city-fujian-2,prefecture-city-fujian-2,588470,CHN_FJ_Fuzhou.588470_TMYx.2011-2025.zip,Fuzhou,26.0776,119.289,city_alias_fallback
114,福建省,Fujian,三明市,三明,地级市,350400,三明,三明市,,26.263,117.639,city-fujian-3,prefecture-city-fujian-3,588470,CHN_FJ_Fuzhou.588470_TMYx.2011-2025.zip,Fuzhou,26.0776,119.289,city_alias_fallback
115,福建省,Fujian,泉州市,泉州,地级市,350500,泉州,泉州市,,24.8741,118.6757,city-fujian-4,prefecture-city-fujian-4,583212,CHN_FJ_Jinjiang.AP.583212_TMYx.2011-2025.zip,Jinjiang.AP,24.796,118.59,city_alias_fallback
116,福建省,Fujian,漳州市,漳州,地级市,350600,漳州,漳州市,,24.513,117.6464,city-fujian-5,prefecture-city-fujian-5,591340,CHN_FJ_Xiamen.591340_TMYx.2011-2025.zip,Xiamen,24.486,118.0798,city_alias_fallback
117,福建省,Fujian,南平市,南平,地级市,350700,南平,南平市,,26.6415,118.1779,city-fujian-6,prefecture-city-fujian-6,588470,CHN_FJ_Fuzhou.588470_TMYx.2011-2025.zip,Fuzhou,26.0776,119.289,city_alias_fallback
118,福建省,Fujian,龙岩市,龙岩,地级市,350800,龙岩,龙岩市,,25.0757,117.0174,city-fujian-7,prefecture-city-fujian-7,591340,CHN_FJ_Xiamen.591340_TMYx.2011-2025.zip,Xiamen,24.486,118.0798,city_alias_fallback
119,福建省,Fujian,宁德市,宁德,地级市,350900,宁德,宁德市,,26.6657,119.5481,city-fujian-8,prefecture-city-fujian-8,588470,CHN_FJ_Fuzhou.588470_TMYx.2011-2025.zip,Fuzhou,26.0776,119.289,city_alias_fallback
120,江西省,Jiangxi,南昌市,南昌,地级市,360100,南昌,南昌市,,,,city-jiangxi,prefecture-city-jiangxi,586060,CHN_JX_Nanchang.586060_TMYx.2011-2025.zip,Nanchang,28.5901,115.9014,province_capital_fallback
121,江西省,Jiangxi,景德镇市,景德镇,地级市,360200,景德镇,景德镇市,,29.269,117.178,city-jiangxi-2,prefecture-city-jiangxi-2,586060,CHN_JX_Nanchang.586060_TMYx.2011-2025.zip,Nanchang,28.5901,115.9014,province_capital_fallback
122,江西省,Jiangxi,萍乡市,萍乡,地级市,360300,萍乡,萍乡市,,27.623,113.8545,city-jiangxi-3,prefecture-city-jiangxi-3,586060,CHN_JX_Nanchang.586060_TMYx.2011-2025.zip,Nanchang,28.5901,115.9014,province_capital_fallback
123,江西省,Jiangxi,九江市,九江,地级市,360400,九江,九江市,,29.7054,116.0026,city-jiangxi-4,prefecture-city-jiangxi-4,586060,CHN_JX_Nanchang.586060_TMYx.2011-2025.zip,Nanchang,28.5901,115.9014,province_capital_fallback
124,江西省,Jiangxi,新余市,新余,地级市,360500,新余,新余市,,27.8176,114.917,city-jiangxi-5,prefecture-city-jiangxi-5,586060,CHN_JX_Nanchang.586060_TMYx.2011-2025.zip,Nanchang,28.5901,115.9014,province_capital_fallback
125,江西省,Jiangxi,鹰潭市,鹰潭,地级市,360600,鹰潭,鹰潭市,,28.2597,117.0686,city-jiangxi-6,prefecture-city-jiangxi-6,586060,CHN_JX_Nanchang.586060_TMYx.2011-2025.zip,Nanchang,28.5901,115.9014,province_capital_fallback
126,江西省,Jiangxi,赣州市,赣州,地级市,360700,赣州,赣州市,,25.8306,114.9328,city-jiangxi-7,prefecture-city-jiangxi-7,586060,CHN_JX_Nanchang.586060_TMYx.2011-2025.zip,Nanchang,28.5901,115.9014,province_capital_fallback
127,江西省,Jiangxi,吉安市,吉安,地级市,360800,吉安,吉安市,,27.0875,114.9645,city-jiangxi-8,prefecture-city-jiangxi-8,586060,CHN_JX_Nanchang.586060_TMYx.2011-2025.zip,Nanchang,28.5901,115.9014,province_capital_fallback
128,江西省,Jiangxi,宜春市,宜春,地级市,360900,宜春,宜春市,,27.8158,114.4166,city-jiangxi-9,prefecture-city-jiangxi-9,586060,CHN_JX_Nanchang.586060_TMYx.2011-2025.zip,Nanchang,28.5901,115.9014,province_capital_fallback
129,江西省,Jiangxi,抚州市,抚州,地级市,361000,抚州,抚州市,,27.9494,116.3582,city-jiangxi-10,prefecture-city-jiangxi-10,586060,CHN_JX_Nanchang.586060_TMYx.2011-2025.zip,Nanchang,28.5901,115.9014,province_capital_fallback
130,江西省,Jiangxi,上饶市,上饶,地级市,361100,上饶,上饶市,,28.455,117.943,city-jiangxi-11,prefecture-city-jiangxi-11,586060,CHN_JX_Nanchang.586060_TMYx.2011-2025.zip,Nanchang,28.5901,115.9014,province_capital_fallback
131,山东省,Shandong,济南市,济南,地级市,370100,Jinan,济南市,Jinan,36.63333333,117.01666667,jinan,prefecture-jinan,548230,CHN_SD_Jinan.548230_CSWD.zip,Jinan.Tsinan,36.6019,117.0081,direct
132,山东省,Shandong,青岛市,青岛,地级市,370200,Qingdao,青岛市,Qingdao,36.08333333,120.33333333,qingdao,prefecture-qingdao,548570,CHN_SD_Qingdao.Intl.AP.548570_TMYx.2011-2025.zip,Qingdao.Intl.AP,36.266,120.374,direct
133,山东省,Shandong,淄博市,淄博,地级市,370300,淄博,淄博市,,36.8133,118.0551,city-shandong,prefecture-city-shandong,548230,CHN_SD_Jinan.548230_CSWD.zip,Jinan.Tsinan,36.6019,117.0081,city_alias_fallback
134,山东省,Shandong,枣庄市,枣庄,地级市,370400,Zaozhuang,枣庄市,Zaozhuang,34.8103,117.3235,zaozhuang,prefecture-zaozhuang,549380,CHN_SD_Linyi.549380_TMYx.zip,Linyi,35.05,118.35,city_alias_fallback
135,山东省,Shandong,东营市,东营,地级市,370500,Dongying,东营市,Dongying,37.4334,118.6744,dongying,prefecture-dongying,548230,CHN_SD_Jinan.548230_CSWD.zip,Jinan.Tsinan,36.6019,117.0081,city_alias_fallback
136,山东省,Shandong,烟台市,烟台,地级市,370600,Yantai,烟台市,Yantai,37.4644,121.4478,yantai,prefecture-yantai,547630,CHN_SD_Yantai.547630_TMYx.zip,Yantai,37.5423,121.4004,direct
137,山东省,Shandong,潍坊市,潍坊,地级市,370700,Weifang,潍坊市,Weifang,36.7065,119.1622,weifang,prefecture-weifang,548430,CHN_HE_Weifang.548430_TMYx.2011-2025.zip,Weifang,36.7667,119.1833,direct
138,山东省,Shandong,济宁市,济宁,地级市,370800,济宁,济宁市,,35.415,116.587,city-shandong-2,prefecture-city-shandong-2,548230,CHN_SD_Jinan.548230_CSWD.zip,Jinan.Tsinan,36.6019,117.0081,city_alias_fallback
139,山东省,Shandong,泰安市,泰安,地级市,370900,泰安,泰安市,,36.2,117.088,city-shandong-3,prefecture-city-shandong-3,548270,CHN_GD_Tai.An.548270_TMYx.zip,Tai.An,36.183,117.133,city_alias_fallback
140,山东省,Shandong,威海市,威海,地级市,371000,Weihai,威海市,Weihai,37.5125,122.1152,weihai,prefecture-weihai,547740,CHN_SD_Weihai.547740_TMYx.zip,Weihai,37.5152,122.1161,direct
141,山东省,Shandong,日照市,日照,地级市,371100,日照,日照市,,35.4154,119.5267,city-shandong-4,prefecture-city-shandong-4,549380,CHN_SD_Linyi.549380_TMYx.zip,Linyi,35.05,118.35,city_alias_fallback
142,山东省,Shandong,临沂市,临沂,地级市,371300,临沂,临沂市,,35.104,118.3556,city-shandong-5,prefecture-city-shandong-5,548230,CHN_SD_Jinan.548230_CSWD.zip,Jinan.Tsinan,36.6019,117.0081,province_capital_fallback
143,山东省,Shandong,德州市,德州,地级市,371400,德州,德州市,,37.4338,116.3572,city-shandong-6,prefecture-city-shandong-6,548230,CHN_SD_Jinan.548230_CSWD.zip,Jinan.Tsinan,36.6019,117.0081,city_alias_fallback
144,山东省,Shandong,聊城市,聊城,地级市,371500,聊城,聊城市,,36.4571,115.9863,city-shandong-7,prefecture-city-shandong-7,548230,CHN_SD_Jinan.548230_CSWD.zip,Jinan.Tsinan,36.6019,117.0081,city_alias_fallback
145,山东省,Shandong,滨州市,滨州,地级市,371600,滨州,滨州市,,37.381,117.971,city-shandong-8,prefecture-city-shandong-8,548230,CHN_SD_Jinan.548230_CSWD.zip,Jinan.Tsinan,36.6019,117.0081,city_alias_fallback
146,山东省,Shandong,菏泽市,菏泽,地级市,371700,菏泽,菏泽市,,35.2328,115.4822,city-shandong-9,prefecture-city-shandong-9,548230,CHN_SD_Jinan.548230_CSWD.zip,Jinan.Tsinan,36.6019,117.0081,city_alias_fallback
147,河南省,Henan,郑州市,郑州,地级市,410100,Zhengzhou,郑州市,Zhengzhou,34.75,113.63333333,zhengzhou,prefecture-zhengzhou,570830,CHN_HA_Zhengzhou.570830_CSWD.zip,Zhengzhou,34.71667,113.65,direct
148,河南省,Henan,开封市,开封,地级市,410200,开封,开封市,,34.7975,114.3079,city-henan,prefecture-city-henan,570830,CHN_HA_Zhengzhou.570830_CSWD.zip,Zhengzhou,34.71667,113.65,city_alias_fallback
149,河南省,Henan,洛阳市,洛阳,地级市,410300,Luoyang,洛阳市,Luoyang,34.6195,112.4543,luoyang,prefecture-luoyang,570730,CHN_HA_Luoyang.570730_TMYx.zip,Luoyang,34.667,112.417,direct
150,河南省,Henan,平顶山市,平顶山,地级市,410400,平顶山,平顶山市,,33.7664,113.1916,city-henan-2,prefecture-city-henan-2,570830,CHN_HA_Zhengzhou.570830_CSWD.zip,Zhengzhou,34.71667,113.65,city_alias_fallback
151,河南省,Henan,安阳市,安阳,地级市,410500,安阳,安阳市,,36.0973,114.3922,city-henan-3,prefecture-city-henan-3,570830,CHN_HA_Zhengzhou.570830_CSWD.zip,Zhengzhou,34.71667,113.65,city_alias_fallback
152,河南省,Henan,鹤壁市,鹤壁,地级市,410600,鹤壁,鹤壁市,,35.7481,114.2964,city-henan-4,prefecture-city-henan-4,570830,CHN_HA_Zhengzhou.570830_CSWD.zip,Zhengzhou,34.71667,113.65,city_alias_fallback
153,河南省,Henan,新乡市,新乡,地级市,410700,新乡,新乡市,,35.303,113.926,city-henan-5,prefecture-city-henan-5,570830,CHN_HA_Zhengzhou.570830_CSWD.zip,Zhengzhou,34.71667,113.65,city_alias_fallback
154,河南省,Henan,焦作市,焦作,地级市,410800,焦作,焦作市,,35.2158,113.2421,city-henan-6,prefecture-city-henan-6,570830,CHN_HA_Zhengzhou.570830_CSWD.zip,Zhengzhou,34.71667,113.65,city_alias_fallback
155,河南省,Henan,濮阳市,濮阳,地级市,410900,濮阳,濮阳市,,35.762,115.028,city-henan-7,prefecture-city-henan-7,570830,CHN_HA_Zhengzhou.570830_CSWD.zip,Zhengzhou,34.71667,113.65,city_alias_fallback
156,河南省,Henan,许昌市,许昌,地级市,411000,许昌,许昌市,,34.036,113.852,city-henan-8,prefecture-city-henan-8,570830,CHN_HA_Zhengzhou.570830_CSWD.zip,Zhengzhou,34.71667,113.65,city_alias_fallback
157,河南省,Henan,漯河市,漯河,地级市,411100,漯河,漯河市,,33.58,114.016,city-henan-9,prefecture-city-henan-9,570830,CHN_HA_Zhengzhou.570830_CSWD.zip,Zhengzhou,34.71667,113.65,city_alias_fallback
158,河南省,Henan,三门峡市,三门峡,地级市,411200,三门峡,三门峡市,,34.773,111.2,city-henan-10,prefecture-city-henan-10,570730,CHN_HA_Luoyang.570730_TMYx.zip,Luoyang,34.667,112.417,city_alias_fallback
159,河南省,Henan,南阳市,南阳,地级市,411300,Nanyang,南阳市,"Nanyang, Henan",32.9897,112.5282,nanyang,prefecture-nanyang,571780,CHN_HA_Nanyang.571780_TMYx.2011-2025.zip,Nanyang,33.1008,112.4869,direct
160,河南省,Henan,商丘市,商丘,地级市,411400,商丘,商丘市,,34.4146,115.6558,city-henan-11,prefecture-city-henan-11,570830,CHN_HA_Zhengzhou.570830_CSWD.zip,Zhengzhou,34.71667,113.65,city_alias_fallback
161,河南省,Henan,信阳市,信阳,地级市,411500,信阳,信阳市,,32.1472,114.0903,city-henan-12,prefecture-city-henan-12,570830,CHN_HA_Zhengzhou.570830_CSWD.zip,Zhengzhou,34.71667,113.65,city_alias_fallback
162,河南省,Henan,周口市,周口,地级市,411600,周口,周口市,,33.6263,114.6968,city-henan-13,prefecture-city-henan-13,570830,CHN_HA_Zhengzhou.570830_CSWD.zip,Zhengzhou,34.71667,113.65,city_alias_fallback
163,河南省,Henan,驻马店市,驻马店,地级市,411700,驻马店,驻马店市,,33.0108,114.0216,city-henan-14,prefecture-city-henan-14,570830,CHN_HA_Zhengzhou.570830_CSWD.zip,Zhengzhou,34.71667,113.65,city_alias_fallback
164,湖北省,Hubei,武汉市,武汉,地级市,420100,Wuhan,武汉市,Wuhan,30.58333333,114.31666667,wuhan,prefecture-wuhan,574940,CHN_HB_Wuhan.574940_CSWD.zip,Tianhe-Wuhan,30.5977,114.0506,direct
165,湖北省,Hubei,黄石市,黄石,地级市,420200,黄石,黄石市,,30.2,115.039,city-hubei,prefecture-city-hubei,574940,CHN_HB_Wuhan.574940_CSWD.zip,Tianhe-Wuhan,30.5977,114.0506,city_alias_fallback
166,湖北省,Hubei,十堰市,十堰,地级市,420300,十堰,十堰市,,32.6295,110.7983,city-hubei-2,prefecture-city-hubei-2,574940,CHN_HB_Wuhan.574940_CSWD.zip,Tianhe-Wuhan,30.5977,114.0506,city_alias_fallback
167,湖北省,Hubei,宜昌市,宜昌,地级市,420500,宜昌,宜昌市,,30.70444444,111.28861111,city-hubei-3,prefecture-city-hubei-3,574940,CHN_HB_Wuhan.574940_CSWD.zip,Tianhe-Wuhan,30.5977,114.0506,province_capital_fallback
168,湖北省,Hubei,襄阳市,襄阳,地级市,420600,襄阳,襄阳市,,32.009,112.123,city-hubei-4,prefecture-city-hubei-4,574940,CHN_HB_Wuhan.574940_CSWD.zip,Tianhe-Wuhan,30.5977,114.0506,city_alias_fallback
169,湖北省,Hubei,鄂州市,鄂州,地级市,420700,鄂州,鄂州市,,,,city-hubei-5,prefecture-city-hubei-5,574940,CHN_HB_Wuhan.574940_CSWD.zip,Tianhe-Wuhan,30.5977,114.0506,city_alias_fallback
170,湖北省,Hubei,荆门市,荆门,地级市,420800,荆门,荆门市,,31.0354,112.1995,city-hubei-6,prefecture-city-hubei-6,574940,CHN_HB_Wuhan.574940_CSWD.zip,Tianhe-Wuhan,30.5977,114.0506,province_capital_fallback
171,湖北省,Hubei,孝感市,孝感,地级市,420900,孝感,孝感市,,30.9176,113.9571,city-hubei-7,prefecture-city-hubei-7,574940,CHN_HB_Wuhan.574940_CSWD.zip,Tianhe-Wuhan,30.5977,114.0506,city_alias_fallback
172,湖北省,Hubei,荆州市,荆州,地级市,421000,Jingzhou,荆州市,Jingzhou,30.335,112.24,jingzhou,prefecture-jingzhou,574760,CHN_HB_Jingzhou-Jiangling.574760_TMYx.2011-2025.zip,Jingzhou-Jiangling,30.35,112.15,direct
173,湖北省,Hubei,黄冈市,黄冈,地级市,421100,黄冈,黄冈市,,30.4537,114.8722,city-hubei-8,prefecture-city-hubei-8,574940,CHN_HB_Wuhan.574940_CSWD.zip,Tianhe-Wuhan,30.5977,114.0506,city_alias_fallback
174,湖北省,Hubei,咸宁市,咸宁,地级市,421200,咸宁,咸宁市,,,,city-hubei-9,prefecture-city-hubei-9,574940,CHN_HB_Wuhan.574940_CSWD.zip,Tianhe-Wuhan,30.5977,114.0506,city_alias_fallback
175,湖北省,Hubei,随州市,随州,地级市,421300,随州,随州市,,31.6901,113.3825,city-hubei-10,prefecture-city-hubei-10,574940,CHN_HB_Wuhan.574940_CSWD.zip,Tianhe-Wuhan,30.5977,114.0506,city_alias_fallback
176,湖北省,Hubei,恩施土家族苗族自治州,恩施土家族苗族,自治州,422800,恩施土家族苗族,恩施土家族苗族自治州,,30.272,109.488,city-hubei-11,prefecture-city-hubei-11,574940,CHN_HB_Wuhan.574940_CSWD.zip,Tianhe-Wuhan,30.5977,114.0506,province_capital_fallback
177,湖南省,Hunan,长沙市,长沙,地级市,430100,Changsha,长沙市,Changsha,,,changsha,prefecture-changsha,576870,CHN_HN_Changsha.576870_TMYx.2011-2025.zip,Changsha,28.1095,112.788,direct
178,湖南省,Hunan,株洲市,株洲,地级市,430200,株洲,株洲市,,27.828,113.134,city-hunan,prefecture-city-hunan,576870,CHN_HN_Changsha.576870_TMYx.2011-2025.zip,Changsha,28.1095,112.788,province_capital_fallback
179,湖南省,Hunan,湘潭市,湘潭,地级市,430300,湘潭,湘潭市,,27.83,112.944,city-hunan-2,prefecture-city-hunan-2,576870,CHN_HN_Changsha.576870_TMYx.2011-2025.zip,Changsha,28.1095,112.788,city_alias_fallback
180,湖南省,Hunan,衡阳市,衡阳,地级市,430400,衡阳,衡阳市,,26.893,112.572,city-hunan-3,prefecture-city-hunan-3,576870,CHN_HN_Changsha.576870_TMYx.2011-2025.zip,Changsha,28.1095,112.788,city_alias_fallback
181,湖南省,Hunan,邵阳市,邵阳,地级市,430500,邵阳,邵阳市,,27.239,111.4675,city-hunan-4,prefecture-city-hunan-4,576870,CHN_HN_Changsha.576870_TMYx.2011-2025.zip,Changsha,28.1095,112.788,city_alias_fallback
182,湖南省,Hunan,岳阳市,岳阳,地级市,430600,Yueyang,岳阳市,Yueyang,29.3567,113.1289,yueyang,prefecture-yueyang,575840,CHN_HN_Yueyang.575840_TMYx.2011-2025.zip,Yueyang,29.3807,113.0879,direct
183,湖南省,Hunan,常德市,常德,地级市,430700,Changde,常德市,Changde,29.0317,111.6987,changde,prefecture-changde,576620,CHN_HN_Changde.576620_TMYx.2011-2025.zip,Changde,29.1168,111.677,direct
184,湖南省,Hunan,张家界市,张家界,地级市,430800,张家界,张家界市,,29.117,110.479,city-hunan-5,prefecture-city-hunan-5,576870,CHN_HN_Changsha.576870_TMYx.2011-2025.zip,Changsha,28.1095,112.788,city_alias_fallback
185,湖南省,Hunan,益阳市,益阳,地级市,430900,Yiyang,益阳市,Yiyang,28.554,112.355,yiyang,prefecture-yiyang,576870,CHN_HN_Changsha.576870_TMYx.2011-2025.zip,Changsha,28.1095,112.788,city_alias_fallback
186,湖南省,Hunan,郴州市,郴州,地级市,431000,郴州,郴州市,,25.77,113.0161,city-hunan-6,prefecture-city-hunan-6,576870,CHN_HN_Changsha.576870_TMYx.2011-2025.zip,Changsha,28.1095,112.788,city_alias_fallback
187,湖南省,Hunan,永州市,永州,地级市,431100,永州,永州市,,26.42,111.613,city-hunan-7,prefecture-city-hunan-7,576870,CHN_HN_Changsha.576870_TMYx.2011-2025.zip,Changsha,28.1095,112.788,city_alias_fallback
188,湖南省,Hunan,怀化市,怀化,地级市,431200,怀化,怀化市,,27.5695,110.0017,city-hunan-8,prefecture-city-hunan-8,576870,CHN_HN_Changsha.576870_TMYx.2011-2025.zip,Changsha,28.1095,112.788,city_alias_fallback
189,湖南省,Hunan,娄底市,娄底,地级市,431300,娄底,娄底市,,27.7,111.993,city-hunan-9,prefecture-city-hunan-9,576870,CHN_HN_Changsha.576870_TMYx.2011-2025.zip,Changsha,28.1095,112.788,city_alias_fallback
190,湖南省,Hunan,湘西土家族苗族自治州,湘西土家族苗族,自治州,433100,Xiangxi Tujia and Miao Autonomous Prefecture,湘西土家族苗族自治州,Xiangxi Tujia and Miao Autonomous Prefecture,28.312,109.739,xiangxi-tujia-and-miao-autonomous-prefecture,prefecture-xiangxi-tujia-and-miao-autonomous-prefecture,576870,CHN_HN_Changsha.576870_TMYx.2011-2025.zip,Changsha,28.1095,112.788,province_capital_fallback
191,广东省,Guangdong,广州市,广州,地级市,440100,Guangzhou,广州市,Guangzhou,23.11666667,113.25,guangzhou,prefecture-guangzhou,592870,CHN_GD_Guangzhou.592870_TMYx.2011-2025.zip,Guangzhou,23.2099,113.4822,direct
192,广东省,Guangdong,韶关市,韶关,地级市,440200,韶关,韶关市,,24.8108,113.5966,city-guangdong,prefecture-city-guangdong,592870,CHN_GD_Guangzhou.592870_TMYx.2011-2025.zip,Guangzhou,23.2099,113.4822,city_alias_fallback
193,广东省,Guangdong,深圳市,深圳,地级市,440300,Shenzhen,深圳市,Shenzhen,22.62,114.07,shenzhen,prefecture-shenzhen,594930,CHN_GD_Shenzhen.594930_TMYx.2011-2025.zip,Shenzhen,22.5417,114.0033,direct
194,广东省,Guangdong,珠海市,珠海,地级市,440400,珠海,珠海市,,22.2711,113.577,city-guangdong-2,prefecture-city-guangdong-2,592870,CHN_GD_Guangzhou.592870_TMYx.2011-2025.zip,Guangzhou,23.2099,113.4822,city_alias_fallback
195,广东省,Guangdong,汕头市,汕头,地级市,440500,汕头,汕头市,,23.354,116.6821,city-guangdong-3,prefecture-city-guangdong-3,592870,CHN_GD_Guangzhou.592870_TMYx.2011-2025.zip,Guangzhou,23.2099,113.4822,province_capital_fallback
196,广东省,Guangdong,佛山市,佛山,地级市,440600,佛山,佛山市,,23.022,113.1207,city-guangdong-4,prefecture-city-guangdong-4,592870,CHN_GD_Guangzhou.592870_TMYx.2011-2025.zip,Guangzhou,23.2099,113.4822,city_alias_fallback
197,广东省,Guangdong,江门市,江门,地级市,440700,江门,江门市,,22.59777778,113.09083333,city-guangdong-5,prefecture-city-guangdong-5,592870,CHN_GD_Guangzhou.592870_TMYx.2011-2025.zip,Guangzhou,23.2099,113.4822,city_alias_fallback
198,广东省,Guangdong,湛江市,湛江,地级市,440800,湛江,湛江市,,21.2719,110.3604,city-guangdong-6,prefecture-city-guangdong-6,592870,CHN_GD_Guangzhou.592870_TMYx.2011-2025.zip,Guangzhou,23.2099,113.4822,province_capital_fallback
199,广东省,Guangdong,茂名市,茂名,地级市,440900,Maoming,茂名市,Maoming,21.6627,110.9259,maoming,prefecture-maoming,596580,CHN_GD_Zhanjiang.596580_TMYx.2011-2025.zip,Zhanjiang,21.1548,110.3034,city_alias_fallback
200,广东省,Guangdong,肇庆市,肇庆,地级市,441200,肇庆,肇庆市,,23.047,112.465,city-guangdong-7,prefecture-city-guangdong-7,592870,CHN_GD_Guangzhou.592870_TMYx.2011-2025.zip,Guangzhou,23.2099,113.4822,city_alias_fallback
201,广东省,Guangdong,惠州市,惠州,地级市,441300,惠州,惠州市,,23.112,114.415,city-guangdong-8,prefecture-city-guangdong-8,594930,CHN_GD_Shenzhen.594930_TMYx.2011-2025.zip,Shenzhen,22.5417,114.0033,city_alias_fallback
202,广东省,Guangdong,梅州市,梅州,地级市,441400,梅州,梅州市,,24.289,116.122,city-guangdong-9,prefecture-city-guangdong-9,593160,CHN_GD_Shantou.593160_TMYx.2011-2025.zip,Shantou,23.3853,116.6792,city_alias_fallback
203,广东省,Guangdong,汕尾市,汕尾,地级市,441500,汕尾,汕尾市,,22.786,115.375,city-guangdong-10,prefecture-city-guangdong-10,593160,CHN_GD_Shantou.593160_TMYx.2011-2025.zip,Shantou,23.3853,116.6792,city_alias_fallback
204,广东省,Guangdong,河源市,河源,地级市,441600,Heyuan,河源市,Heyuan,23.7437,114.7007,heyuan,prefecture-heyuan,592930,CHN_GD_Heyuan.592930_TMYx.2011-2025.zip,Heyuan,23.7935,114.7309,direct
205,广东省,Guangdong,阳江市,阳江,地级市,441700,阳江,阳江市,,21.8584,111.9816,city-guangdong-11,prefecture-city-guangdong-11,596580,CHN_GD_Zhanjiang.596580_TMYx.2011-2025.zip,Zhanjiang,21.1548,110.3034,city_alias_fallback
206,广东省,Guangdong,清远市,清远,地级市,441800,清远,清远市,,23.682,113.056,city-guangdong-12,prefecture-city-guangdong-12,592870,CHN_GD_Guangzhou.592870_TMYx.2011-2025.zip,Guangzhou,23.2099,113.4822,city_alias_fallback
207,广东省,Guangdong,东莞市,东莞,地级市,441900,Dongguan,东莞市,Dongguan,23.021,113.7517,dongguan,prefecture-dongguan,592870,CHN_GD_Guangzhou.592870_TMYx.2011-2025.zip,Guangzhou,23.2099,113.4822,city_alias_fallback
208,广东省,Guangdong,中山市,中山,地级市,442000,中山,中山市,,22.51666667,113.38333333,city-guangdong-13,prefecture-city-guangdong-13,592870,CHN_GD_Guangzhou.592870_TMYx.2011-2025.zip,Guangzhou,23.2099,113.4822,city_alias_fallback
209,广东省,Guangdong,潮州市,潮州,地级市,445100,潮州,潮州市,,23.66666667,116.63333333,city-guangdong-14,prefecture-city-guangdong-14,593160,CHN_GD_Shantou.593160_TMYx.2011-2025.zip,Shantou,23.3853,116.6792,city_alias_fallback
210,广东省,Guangdong,揭阳市,揭阳,地级市,445200,揭阳,揭阳市,,23.5487,116.3723,city-guangdong-15,prefecture-city-guangdong-15,593160,CHN_GD_Shantou.593160_TMYx.2011-2025.zip,Shantou,23.3853,116.6792,city_alias_fallback
211,广东省,Guangdong,云浮市,云浮,地级市,445300,云浮,云浮市,,22.9155,112.0447,city-guangdong-16,prefecture-city-guangdong-16,592870,CHN_GD_Guangzhou.592870_TMYx.2011-2025.zip,Guangzhou,23.2099,113.4822,city_alias_fallback
212,广西壮族自治区,Guangxi,南宁市,南宁,地级市,450100,Nanning,南宁市,Nanning,22.8161,108.3664,nanning,prefecture-nanning,594310,CHN_GX_Nanning.594310_TMYx.2011-2025.zip,Nanning,22.784,108.5472,direct
213,广西壮族自治区,Guangxi,柳州市,柳州,地级市,450200,Liuzhou,柳州市,Liuzhou,24.3262,109.4284,liuzhou,prefecture-liuzhou,590460,CHN_GX_Liuzhou.590460_TMYx.2011-2025.zip,Liuzhou,24.3628,109.46,direct
214,广西壮族自治区,Guangxi,桂林市,桂林,地级市,450300,Guilin,桂林市,Guilin,25.2344,110.1799,guilin,prefecture-guilin,579570,CHN_GX_Guilin.579570_TMYx.2011-2025.zip,Guilin,25.3226,110.3046,direct
215,广西壮族自治区,Guangxi,梧州市,梧州,地级市,450400,Wuzhou,梧州市,Wuzhou,23.4771,111.2788,wuzhou,prefecture-wuzhou,592650,CHN_GX_Wuzhou.592650_TMYx.2011-2025.zip,Wuzhou,23.4783,111.3037,direct
216,广西壮族自治区,Guangxi,北海市,北海,地级市,450500,Beihai,北海市,Beihai,21.4811,109.1205,beihai,prefecture-beihai,596440,CHN_GX_Beihai.596440_TMYx.2011-2025.zip,Beihai,21.4566,109.1363,direct
217,广西壮族自治区,Guangxi,防城港市,防城港,地级市,450600,防城港,防城港市,,21.6868,108.3538,city-guangxi,prefecture-city-guangxi,594310,CHN_GX_Nanning.594310_TMYx.2011-2025.zip,Nanning,22.784,108.5472,province_capital_fallback
218,广西壮族自治区,Guangxi,钦州市,钦州,地级市,450700,钦州,钦州市,,21.98,108.654,city-guangxi-2,prefecture-city-guangxi-2,594310,CHN_GX_Nanning.594310_TMYx.2011-2025.zip,Nanning,22.784,108.5472,province_capital_fallback
219,广西壮族自治区,Guangxi,贵港市,贵港,地级市,450800,贵港,贵港市,,23.1115,109.5987,city-guangxi-3,prefecture-city-guangxi-3,594310,CHN_GX_Nanning.594310_TMYx.2011-2025.zip,Nanning,22.784,108.5472,province_capital_fallback
220,广西壮族自治区,Guangxi,玉林市,玉林,地级市,450900,Yulin,玉林市,"Yulin, Guangxi",22.654,110.1811,yulin,prefecture-yulin,536460,CHN_SN_Yulin.536460_TMYx.2011-2025.zip,Yulin,38.2687,109.7804,direct
221,广西壮族自治区,Guangxi,百色市,百色,地级市,451000,百色,百色市,,23.9025,106.6182,city-guangxi-4,prefecture-city-guangxi-4,594310,CHN_GX_Nanning.594310_TMYx.2011-2025.zip,Nanning,22.784,108.5472,province_capital_fallback
222,广西壮族自治区,Guangxi,贺州市,贺州,地级市,451100,贺州,贺州市,,,,city-guangxi-5,prefecture-city-guangxi-5,594310,CHN_GX_Nanning.594310_TMYx.2011-2025.zip,Nanning,22.784,108.5472,province_capital_fallback
223,广西壮族自治区,Guangxi,河池市,河池,地级市,451200,河池,河池市,,24.6929,108.0852,city-guangxi-6,prefecture-city-guangxi-6,594310,CHN_GX_Nanning.594310_TMYx.2011-2025.zip,Nanning,22.784,108.5472,province_capital_fallback
224,广西壮族自治区,Guangxi,来宾市,来宾,地级市,451300,来宾,来宾市,,23.7503,109.2213,city-guangxi-7,prefecture-city-guangxi-7,594310,CHN_GX_Nanning.594310_TMYx.2011-2025.zip,Nanning,22.784,108.5472,province_capital_fallback
225,广西壮族自治区,Guangxi,崇左市,崇左,地级市,451400,崇左,崇左市,,22.3772,107.3651,city-guangxi-8,prefecture-city-guangxi-8,594310,CHN_GX_Nanning.594310_TMYx.2011-2025.zip,Nanning,22.784,108.5472,province_capital_fallback
226,海南省,Hainan,海口市,海口,地级市,460100,海口,海口市,,20.05,110.16666667,city-hainan,prefecture-city-hainan,597580,CHN_HI_Haikou.597580_TMYx.2011-2025.zip,Haikou,19.9938,110.2469,province_capital_fallback
227,海南省,Hainan,三亚市,三亚,地级市,460200,三亚,三亚市,,18.2527,109.5111,city-hainan-2,prefecture-city-hainan-2,597580,CHN_HI_Haikou.597580_TMYx.2011-2025.zip,Haikou,19.9938,110.2469,province_capital_fallback
228,海南省,Hainan,三沙市,三沙,地级市,460300,三沙,三沙市,,16.83416667,112.3375,city-hainan-3,prefecture-city-hainan-3,597580,CHN_HI_Haikou.597580_TMYx.2011-2025.zip,Haikou,19.9938,110.2469,province_capital_fallback
229,海南省,Hainan,儋州市,儋州,地级市,460400,儋州,儋州市,,19.521,109.581,city-hainan-4,prefecture-city-hainan-4,597580,CHN_HI_Haikou.597580_TMYx.2011-2025.zip,Haikou,19.9938,110.2469,province_capital_fallback
230,四川省,Sichuan,成都市,成都,地级市,510100,Chengdu,成都市,Chengdu,30.65833333,104.06444444,chengdu,prefecture-chengdu,562940,CHN_SC_Chengdu.562940_CSWD.zip,Chengdu-Shuangliu.AP,30.579,103.947,direct
231,四川省,Sichuan,自贡市,自贡,地级市,510300,自贡,自贡市,,29.3386,104.7778,city-sichuan,prefecture-city-sichuan,562940,CHN_SC_Chengdu.562940_CSWD.zip,Chengdu-Shuangliu.AP,30.579,103.947,city_alias_fallback
232,四川省,Sichuan,攀枝花市,攀枝花,地级市,510400,攀枝花,攀枝花市,,26.5817,101.7183,city-sichuan-2,prefecture-city-sichuan-2,562940,CHN_SC_Chengdu.562940_CSWD.zip,Chengdu-Shuangliu.AP,30.579,103.947,city_alias_fallback
233,四川省,Sichuan,泸州市,泸州,地级市,510500,Luzhou,泸州市,Luzhou,28.8712,105.4409,luzhou,prefecture-luzhou,576020,CHN_SC_Luzhou.576020_TMYx.zip,Luzhou,28.883,105.433,direct
234,四川省,Sichuan,德阳市,德阳,地级市,510600,德阳,德阳市,,31.1271,104.3976,city-sichuan-3,prefecture-city-sichuan-3,562940,CHN_SC_Chengdu.562940_CSWD.zip,Chengdu-Shuangliu.AP,30.579,103.947,city_alias_fallback
235,四川省,Sichuan,绵阳市,绵阳,地级市,510700,绵阳,绵阳市,,31.467,104.6779,city-sichuan-4,prefecture-city-sichuan-4,562940,CHN_SC_Chengdu.562940_CSWD.zip,Chengdu-Shuangliu.AP,30.579,103.947,province_capital_fallback
236,四川省,Sichuan,广元市,广元,地级市,510800,广元,广元市,,32.4354,105.843,city-sichuan-5,prefecture-city-sichuan-5,562940,CHN_SC_Chengdu.562940_CSWD.zip,Chengdu-Shuangliu.AP,30.579,103.947,city_alias_fallback
237,四川省,Sichuan,遂宁市,遂宁,地级市,510900,遂宁,遂宁市,,30.5333,105.5923,city-sichuan-6,prefecture-city-sichuan-6,562940,CHN_SC_Chengdu.562940_CSWD.zip,Chengdu-Shuangliu.AP,30.579,103.947,city_alias_fallback
238,四川省,Sichuan,内江市,内江,地级市,511000,内江,内江市,,29.5801,105.0581,city-sichuan-7,prefecture-city-sichuan-7,562940,CHN_SC_Chengdu.562940_CSWD.zip,Chengdu-Shuangliu.AP,30.579,103.947,city_alias_fallback
239,四川省,Sichuan,乐山市,乐山,地级市,511100,乐山,乐山市,,29.55194444,103.76555556,city-sichuan-8,prefecture-city-sichuan-8,562940,CHN_SC_Chengdu.562940_CSWD.zip,Chengdu-Shuangliu.AP,30.579,103.947,city_alias_fallback
240,四川省,Sichuan,南充市,南充,地级市,511300,南充,南充市,,30.8377,106.1087,city-sichuan-9,prefecture-city-sichuan-9,562940,CHN_SC_Chengdu.562940_CSWD.zip,Chengdu-Shuangliu.AP,30.579,103.947,province_capital_fallback
241,四川省,Sichuan,眉山市,眉山,地级市,511400,眉山,眉山市,,30.0768,103.8479,city-sichuan-10,prefecture-city-sichuan-10,562940,CHN_SC_Chengdu.562940_CSWD.zip,Chengdu-Shuangliu.AP,30.579,103.947,city_alias_fallback
242,四川省,Sichuan,宜宾市,宜宾,地级市,511500,Yibin,宜宾市,Yibin,28.7522,104.6423,yibin,prefecture-yibin,564920,CHN_SC_Yibin.564920_TMYx.2011-2025.zip,Yibin,28.7688,104.605,direct
243,四川省,Sichuan,广安市,广安,地级市,511600,广安,广安市,,30.4553,106.633,city-sichuan-11,prefecture-city-sichuan-11,575160,CHN_CQ_Chongqing.575160_TMYx.2011-2025.zip,Chongqing,29.5758,106.4609,city_alias_fallback
244,四川省,Sichuan,达州市,达州,地级市,511700,达州,达州市,,31.2088,107.4676,city-sichuan-12,prefecture-city-sichuan-12,575160,CHN_CQ_Chongqing.575160_TMYx.2011-2025.zip,Chongqing,29.5758,106.4609,city_alias_fallback
245,四川省,Sichuan,雅安市,雅安,地级市,511800,雅安,雅安市,,29.9805,103.0128,city-sichuan-13,prefecture-city-sichuan-13,562940,CHN_SC_Chengdu.562940_CSWD.zip,Chengdu-Shuangliu.AP,30.579,103.947,city_alias_fallback
246,四川省,Sichuan,巴中市,巴中,地级市,511900,巴中,巴中市,,31.868,106.7473,city-sichuan-14,prefecture-city-sichuan-14,562940,CHN_SC_Chengdu.562940_CSWD.zip,Chengdu-Shuangliu.AP,30.579,103.947,city_alias_fallback
247,四川省,Sichuan,资阳市,资阳,地级市,512000,资阳,资阳市,,30.1289,104.6278,city-sichuan-15,prefecture-city-sichuan-15,562940,CHN_SC_Chengdu.562940_CSWD.zip,Chengdu-Shuangliu.AP,30.579,103.947,city_alias_fallback
248,四川省,Sichuan,阿坝藏族羌族自治州,阿坝藏族羌族,自治州,513200,阿坝藏族羌族,阿坝藏族羌族自治州,,31.8994,102.2247,city-sichuan-16,prefecture-city-sichuan-16,562940,CHN_SC_Chengdu.562940_CSWD.zip,Chengdu-Shuangliu.AP,30.579,103.947,province_capital_fallback
249,四川省,Sichuan,甘孜藏族自治州,甘孜藏族,自治州,513300,甘孜藏族,甘孜藏族自治州,,30.0495,101.9624,city-sichuan-17,prefecture-city-sichuan-17,562940,CHN_SC_Chengdu.562940_CSWD.zip,Chengdu-Shuangliu.AP,30.579,103.947,province_capital_fallback
250,四川省,Sichuan,凉山彝族自治州,凉山彝族,自治州,513400,凉山彝族,凉山彝族自治州,,27.8817,102.2676,city-sichuan-18,prefecture-city-sichuan-18,562940,CHN_SC_Chengdu.562940_CSWD.zip,Chengdu-Shuangliu.AP,30.579,103.947,province_capital_fallback
251,贵州省,Guizhou,贵阳市,贵阳,地级市,520100,Guiyang,贵阳市,Guiyang,26.57305556,106.70611111,guiyang,prefecture-guiyang,578160,CHN_GZ_Guiyang.578160_TMYx.2011-2025.zip,Guiyang,26.5897,106.7276,direct
252,贵州省,Guizhou,六盘水市,六盘水,地级市,520200,Liupanshui,六盘水市,Liupanshui,26.5925,104.8303,liupanshui,prefecture-liupanshui,578160,CHN_GZ_Guiyang.578160_TMYx.2011-2025.zip,Guiyang,26.5897,106.7276,city_alias_fallback
253,贵州省,Guizhou,遵义市,遵义,地级市,520300,遵义,遵义市,,27.7255,106.9274,city-guizhou,prefecture-city-guizhou,577130,CHN_GZ_Zunyi.577130_CSWD.zip,Zunyi,27.7,106.8833,city_alias_fallback
254,贵州省,Guizhou,安顺市,安顺,地级市,520400,安顺,安顺市,,26.2531,105.9476,city-guizhou-2,prefecture-city-guizhou-2,578160,CHN_GZ_Guiyang.578160_TMYx.2011-2025.zip,Guiyang,26.5897,106.7276,city_alias_fallback
255,贵州省,Guizhou,毕节市,毕节,地级市,520500,毕节,毕节市,,27.2828,105.2917,city-guizhou-3,prefecture-city-guizhou-3,578160,CHN_GZ_Guiyang.578160_TMYx.2011-2025.zip,Guiyang,26.5897,106.7276,city_alias_fallback
256,贵州省,Guizhou,铜仁市,铜仁,地级市,520600,铜仁,铜仁市,,27.7316,109.1895,city-guizhou-4,prefecture-city-guizhou-4,578160,CHN_GZ_Guiyang.578160_TMYx.2011-2025.zip,Guiyang,26.5897,106.7276,city_alias_fallback
257,贵州省,Guizhou,黔西南布依族苗族自治州,黔西南布依族苗族,自治州,522300,黔西南布依族苗族,黔西南布依族苗族自治州,,25.0884,104.9064,city-guizhou-5,prefecture-city-guizhou-5,578160,CHN_GZ_Guiyang.578160_TMYx.2011-2025.zip,Guiyang,26.5897,106.7276,province_capital_fallback
258,贵州省,Guizhou,黔东南苗族侗族自治州,黔东南苗族侗族,自治州,522600,黔东南苗族侗族,黔东南苗族侗族自治州,,26.5838,107.9828,city-guizhou-6,prefecture-city-guizhou-6,578160,CHN_GZ_Guiyang.578160_TMYx.2011-2025.zip,Guiyang,26.5897,106.7276,province_capital_fallback
259,贵州省,Guizhou,黔南布依族苗族自治州,黔南布依族苗族,自治州,522700,黔南布依族苗族,黔南布依族苗族自治州,,26.254,107.522,city-guizhou-7,prefecture-city-guizhou-7,578160,CHN_GZ_Guiyang.578160_TMYx.2011-2025.zip,Guiyang,26.5897,106.7276,province_capital_fallback
260,云南省,Yunnan,昆明市,昆明,地级市,530100,Kunming,昆明市,Kunming,,,kunming,prefecture-kunming,567780,CHN_YN_Kunming.567780_CSWD.zip,Kunming-Wujiaba.AP,24.992,102.744,direct
261,云南省,Yunnan,曲靖市,曲靖,地级市,530300,曲靖,曲靖市,,,,city-yunnan,prefecture-city-yunnan,567780,CHN_YN_Kunming.567780_CSWD.zip,Kunming-Wujiaba.AP,24.992,102.744,city_alias_fallback
262,云南省,Yunnan,玉溪市,玉溪,地级市,530400,玉溪,玉溪市,,24.3473,102.5272,city-yunnan-2,prefecture-city-yunnan-2,567780,CHN_YN_Kunming.567780_CSWD.zip,Kunming-Wujiaba.AP,24.992,102.744,city_alias_fallback
263,云南省,Yunnan,保山市,保山,地级市,530500,保山,保山市,,25.112,99.1617,city-yunnan-3,prefecture-city-yunnan-3,567780,CHN_YN_Kunming.567780_CSWD.zip,Kunming-Wujiaba.AP,24.992,102.744,city_alias_fallback
264,云南省,Yunnan,昭通市,昭通,地级市,530600,昭通,昭通市,,27.3384,103.7175,city-yunnan-4,prefecture-city-yunnan-4,567780,CHN_YN_Kunming.567780_CSWD.zip,Kunming-Wujiaba.AP,24.992,102.744,city_alias_fallback
265,云南省,Yunnan,丽江市,丽江,地级市,530700,丽江,丽江市,,26.8548,100.2274,city-yunnan-5,prefecture-city-yunnan-5,567780,CHN_YN_Kunming.567780_CSWD.zip,Kunming-Wujiaba.AP,24.992,102.744,city_alias_fallback
266,云南省,Yunnan,普洱市,普洱,地级市,530800,普洱,普洱市,,22.8251,100.9665,city-yunnan-6,prefecture-city-yunnan-6,567780,CHN_YN_Kunming.567780_CSWD.zip,Kunming-Wujiaba.AP,24.992,102.744,city_alias_fallback
267,云南省,Yunnan,临沧市,临沧,地级市,530900,临沧,临沧市,,23.8841,100.0889,city-yunnan-7,prefecture-city-yunnan-7,567780,CHN_YN_Kunming.567780_CSWD.zip,Kunming-Wujiaba.AP,24.992,102.744,city_alias_fallback
268,云南省,Yunnan,楚雄彝族自治州,楚雄彝族,自治州,532300,楚雄彝族,楚雄彝族自治州,,25.0455,101.5281,city-yunnan-8,prefecture-city-yunnan-8,567780,CHN_YN_Kunming.567780_CSWD.zip,Kunming-Wujiaba.AP,24.992,102.744,province_capital_fallback
269,云南省,Yunnan,红河哈尼族彝族自治州,红河哈尼族彝族,自治州,532500,红河哈尼族彝族,红河哈尼族彝族自治州,,23.3627,103.375,city-yunnan-9,prefecture-city-yunnan-9,567780,CHN_YN_Kunming.567780_CSWD.zip,Kunming-Wujiaba.AP,24.992,102.744,province_capital_fallback
270,云南省,Yunnan,文山壮族苗族自治州,文山壮族苗族,自治州,532600,文山壮族苗族,文山壮族苗族自治州,,23.4007,104.2162,city-yunnan-10,prefecture-city-yunnan-10,567780,CHN_YN_Kunming.567780_CSWD.zip,Kunming-Wujiaba.AP,24.992,102.744,province_capital_fallback
271,云南省,Yunnan,西双版纳傣族自治州,西双版纳傣族,自治州,532800,Xishuangbanna Dai Autonomous Prefecture,西双版纳傣族自治州,Xishuangbanna Dai Autonomous Prefecture,22.0087,100.7969,xishuangbanna-dai-autonomous-prefecture,prefecture-xishuangbanna-dai-autonomous-prefecture,569590,CHN_YN_Xishuangbanna-Jinghong.569590_TMYx.2011-2025.zip,Xishuangbanna-Jinghong,22.0127,100.7822,direct
272,云南省,Yunnan,大理白族自治州,大理白族,自治州,532900,大理白族,大理白族自治州,,25.6096,100.2664,city-yunnan-11,prefecture-city-yunnan-11,567780,CHN_YN_Kunming.567780_CSWD.zip,Kunming-Wujiaba.AP,24.992,102.744,province_capital_fallback
273,云南省,Yunnan,德宏傣族景颇族自治州,德宏傣族景颇族,自治州,533100,德宏傣族景颇族,德宏傣族景颇族自治州,,24.4334,98.5848,city-yunnan-12,prefecture-city-yunnan-12,567780,CHN_YN_Kunming.567780_CSWD.zip,Kunming-Wujiaba.AP,24.992,102.744,province_capital_fallback
274,云南省,Yunnan,怒江傈僳族自治州,怒江傈僳族,自治州,533300,怒江傈僳族,怒江傈僳族自治州,,25.8176,98.8565,city-yunnan-13,prefecture-city-yunnan-13,567780,CHN_YN_Kunming.567780_CSWD.zip,Kunming-Wujiaba.AP,24.992,102.744,province_capital_fallback
275,云南省,Yunnan,迪庆藏族自治州,迪庆藏族,自治州,533400,迪庆藏族,迪庆藏族自治州,,27.8187,99.7022,city-yunnan-14,prefecture-city-yunnan-14,567780,CHN_YN_Kunming.567780_CSWD.zip,Kunming-Wujiaba.AP,24.992,102.744,province_capital_fallback
276,西藏自治区,Tibet,拉萨市,拉萨,地级市,540100,Lhasa,拉萨市,Lhasa (prefecture-level city),29.64944444,91.09833333,lhasa,prefecture-lhasa,555910,CHN_XJ_Lhasa.555910_TMYx.2011-2025.zip,Lhasa,29.6586,91.1353,direct
277,西藏自治区,Tibet,日喀则市,日喀则,地级市,540200,Shigatse,日喀则市,Shigatse,,,shigatse,prefecture-shigatse,555910,CHN_XJ_Lhasa.555910_TMYx.2011-2025.zip,Lhasa,29.6586,91.1353,city_alias_fallback
278,西藏自治区,Tibet,昌都市,昌都,地级市,540300,Chamdo,昌都市,Chamdo,,,chamdo,prefecture-chamdo,555910,CHN_XJ_Lhasa.555910_TMYx.2011-2025.zip,Lhasa,29.6586,91.1353,city_alias_fallback
279,西藏自治区,Tibet,林芝市,林芝,地级市,540400,Nyingchi,林芝市,Nyingchi,,,nyingchi,prefecture-nyingchi,563120,CHN_XJ_Nyingchi.563120_TMYx.2011-2025.zip,Nyingchi,29.6475,94.3605,city_alias_fallback
280,西藏自治区,Tibet,山南市,山南,地级市,540500,Shannan,山南市,"Shannan, Tibet",,,shannan,prefecture-shannan,555910,CHN_XJ_Lhasa.555910_TMYx.2011-2025.zip,Lhasa,29.6586,91.1353,city_alias_fallback
281,西藏自治区,Tibet,那曲市,那曲,地级市,540600,Nagqu,那曲市,Nagqu,31.47815278,92.04845556,nagqu,prefecture-nagqu,552990,CHN_XJ_Nagqu.552990_TMYx.2011-2025.zip,Nagqu,31.4795,92.0612,direct
282,西藏自治区,Tibet,阿里地区,阿里,地区,542500,Ngari Prefecture,阿里地区,Ngari Prefecture,,,ngari-prefecture,prefecture-ngari-prefecture,552280,CHN_XJ_Ngari.552280_TMYx.2011-2025.zip,Ngari,32.5,80.0833,direct
283,陕西省,Shaanxi,西安市,西安,地级市,610100,Xi'an,西安市,Xi'an,34.25916667,108.94527778,xian,prefecture-xian,570360,CHN_SN_Xian.570360_CSWD.zip,Xianyang.AP,34.447,108.752,direct
284,陕西省,Shaanxi,铜川市,铜川,地级市,610200,铜川,铜川市,,34.8979,108.9448,city-shaanxi,prefecture-city-shaanxi,570360,CHN_SN_Xian.570360_CSWD.zip,Xianyang.AP,34.447,108.752,city_alias_fallback
285,陕西省,Shaanxi,宝鸡市,宝鸡,地级市,610300,Baoji,宝鸡市,Baoji,34.3632,107.2378,baoji,prefecture-baoji,570160,CHN_SN_Baoji.570160_TMYx.zip,Baoji,34.3524,107.1289,direct
286,陕西省,Shaanxi,咸阳市,咸阳,地级市,610400,Xianyang,咸阳市,Xianyang,34.3296,108.7091,xianyang,prefecture-xianyang,570360,CHN_SN_Xianyang.AP.570360_TMYx.2011-2025.zip,Xianyang.AP,34.447,108.752,direct
287,陕西省,Shaanxi,渭南市,渭南,地级市,610500,渭南,渭南市,,34.4993,109.5031,city-shaanxi-2,prefecture-city-shaanxi-2,570360,CHN_SN_Xian.570360_CSWD.zip,Xianyang.AP,34.447,108.752,city_alias_fallback
288,陕西省,Shaanxi,延安市,延安,地级市,610600,Yan'an,延安市,Yan'an,36.5855,109.4897,yanan,prefecture-yanan,538450,CHN_SN_Yan-An.538450_TMYx.2011-2025.zip,Yan-An,36.5757,109.4498,direct
289,陕西省,Shaanxi,汉中市,汉中,地级市,610700,汉中,汉中市,,33.0675,107.0233,city-shaanxi-3,prefecture-city-shaanxi-3,570360,CHN_SN_Xian.570360_CSWD.zip,Xianyang.AP,34.447,108.752,city_alias_fallback
290,陕西省,Shaanxi,榆林市,榆林,地级市,610800,榆林,榆林市,,38.2854,109.7347,city-shaanxi-4,prefecture-city-shaanxi-4,536460,CHN_SN_Yulin.536460_TMYx.2011-2025.zip,Yulin,38.2687,109.7804,city_alias_fallback
291,陕西省,Shaanxi,安康市,安康,地级市,610900,安康,安康市,,32.6847,109.029,city-shaanxi-5,prefecture-city-shaanxi-5,570360,CHN_SN_Xian.570360_CSWD.zip,Xianyang.AP,34.447,108.752,city_alias_fallback
292,陕西省,Shaanxi,商洛市,商洛,地级市,611000,商洛,商洛市,,33.8704,109.9405,city-shaanxi-6,prefecture-city-shaanxi-6,570360,CHN_SN_Xian.570360_CSWD.zip,Xianyang.AP,34.447,108.752,city_alias_fallback
293,甘肃省,Gansu,兰州市,兰州,地级市,620100,Lanzhou,兰州市,Lanzhou,36.061,103.832,lanzhou,prefecture-lanzhou,528890,CHN_GS_Lanzhou.528890_TMYx.2011-2025.zip,Lanzhou,36.05,103.883,direct
294,甘肃省,Gansu,嘉峪关市,嘉峪关,地级市,620200,嘉峪关,嘉峪关市,,39.7721,98.2888,city-gansu,prefecture-city-gansu,528890,CHN_GS_Lanzhou.528890_TMYx.2011-2025.zip,Lanzhou,36.05,103.883,province_capital_fallback
295,甘肃省,Gansu,金昌市,金昌,地级市,620300,金昌,金昌市,,38.52,102.187,city-gansu-2,prefecture-city-gansu-2,528890,CHN_GS_Lanzhou.528890_TMYx.2011-2025.zip,Lanzhou,36.05,103.883,city_alias_fallback
296,甘肃省,Gansu,白银市,白银,地级市,620400,白银,白银市,,36.545,104.138,city-gansu-3,prefecture-city-gansu-3,528890,CHN_GS_Lanzhou.528890_TMYx.2011-2025.zip,Lanzhou,36.05,103.883,city_alias_fallback
297,甘肃省,Gansu,天水市,天水,地级市,620500,天水,天水市,,34.576,105.709,city-gansu-4,prefecture-city-gansu-4,528890,CHN_GS_Lanzhou.528890_TMYx.2011-2025.zip,Lanzhou,36.05,103.883,city_alias_fallback
298,甘肃省,Gansu,武威市,武威,地级市,620600,武威,武威市,,37.928,102.641,city-gansu-5,prefecture-city-gansu-5,528890,CHN_GS_Lanzhou.528890_TMYx.2011-2025.zip,Lanzhou,36.05,103.883,city_alias_fallback
299,甘肃省,Gansu,张掖市,张掖,地级市,620700,张掖,张掖市,,38.931,100.453,city-gansu-6,prefecture-city-gansu-6,526610,CHN_GS_Shandan.526610_TMYx.zip,Shandan,38.8,101.083,city_alias_fallback
300,甘肃省,Gansu,平凉市,平凉,地级市,620800,平凉,平凉市,,35.544,106.665,city-gansu-7,prefecture-city-gansu-7,528890,CHN_GS_Lanzhou.528890_TMYx.2011-2025.zip,Lanzhou,36.05,103.883,city_alias_fallback
301,甘肃省,Gansu,酒泉市,酒泉,地级市,620900,Jiuquan,酒泉市,Jiuquan,39.734,98.494,jiuquan,prefecture-jiuquan,525330,CHN_GS_Jiuquan.525330_CSWD.zip,Jiuquan,39.76667,98.48333,direct
302,甘肃省,Gansu,庆阳市,庆阳,地级市,621000,庆阳,庆阳市,,35.739,107.632,city-gansu-8,prefecture-city-gansu-8,528890,CHN_GS_Lanzhou.528890_TMYx.2011-2025.zip,Lanzhou,36.05,103.883,city_alias_fallback
303,甘肃省,Gansu,定西市,定西,地级市,621100,定西,定西市,,35.583,104.626,city-gansu-9,prefecture-city-gansu-9,528890,CHN_GS_Lanzhou.528890_TMYx.2011-2025.zip,Lanzhou,36.05,103.883,city_alias_fallback
304,甘肃省,Gansu,陇南市,陇南,地级市,621200,陇南,陇南市,,33.401,104.922,city-gansu-10,prefecture-city-gansu-10,528890,CHN_GS_Lanzhou.528890_TMYx.2011-2025.zip,Lanzhou,36.05,103.883,city_alias_fallback
305,甘肃省,Gansu,临夏回族自治州,临夏回族,自治州,622900,临夏回族,临夏回族自治州,,35.601,103.211,city-gansu-11,prefecture-city-gansu-11,528890,CHN_GS_Lanzhou.528890_TMYx.2011-2025.zip,Lanzhou,36.05,103.883,province_capital_fallback
306,甘肃省,Gansu,甘南藏族自治州,甘南藏族,自治州,623000,甘南藏族,甘南藏族自治州,,34.983,102.911,city-gansu-12,prefecture-city-gansu-12,528890,CHN_GS_Lanzhou.528890_TMYx.2011-2025.zip,Lanzhou,36.05,103.883,province_capital_fallback
307,青海省,Qinghai,西宁市,西宁,地级市,630100,西宁,西宁市,,36.6169,101.7781,city-qinghai,prefecture-city-qinghai,528660,CHN_QH_Xining.528660_TMYx.2011-2025.zip,Xining,36.6644,101.7331,province_capital_fallback
308,青海省,Qinghai,海东市,海东,地级市,630200,海东,海东市,,36.502,102.1045,city-qinghai-2,prefecture-city-qinghai-2,528660,CHN_QH_Xining.528660_TMYx.2011-2025.zip,Xining,36.6644,101.7331,city_alias_fallback
309,青海省,Qinghai,海北藏族自治州,海北藏族,自治州,632200,海北藏族,海北藏族自治州,,36.9545,100.9006,city-qinghai-3,prefecture-city-qinghai-3,528660,CHN_QH_Xining.528660_TMYx.2011-2025.zip,Xining,36.6644,101.7331,province_capital_fallback
310,青海省,Qinghai,黄南藏族自治州,黄南藏族,自治州,632300,黄南藏族,黄南藏族自治州,,35.5196,102.015,city-qinghai-4,prefecture-city-qinghai-4,528660,CHN_QH_Xining.528660_TMYx.2011-2025.zip,Xining,36.6644,101.7331,province_capital_fallback
311,青海省,Qinghai,海南藏族自治州,海南藏族,自治州,632500,海南藏族,海南藏族自治州,,36.2967,100.6227,city-qinghai-5,prefecture-city-qinghai-5,528660,CHN_QH_Xining.528660_TMYx.2011-2025.zip,Xining,36.6644,101.7331,province_capital_fallback
312,青海省,Qinghai,果洛藏族自治州,果洛藏族,自治州,632600,果洛藏族,果洛藏族自治州,,34.4715,100.2447,city-qinghai-6,prefecture-city-qinghai-6,528660,CHN_QH_Xining.528660_TMYx.2011-2025.zip,Xining,36.6644,101.7331,province_capital_fallback
313,青海省,Qinghai,玉树藏族自治州,玉树藏族,自治州,632700,玉树藏族,玉树藏族自治州,,33.012,97.092,city-qinghai-7,prefecture-city-qinghai-7,528660,CHN_QH_Xining.528660_TMYx.2011-2025.zip,Xining,36.6644,101.7331,province_capital_fallback
314,青海省,Qinghai,海西蒙古族藏族自治州,海西蒙古族藏族,自治州,632800,海西蒙古族藏族,海西蒙古族藏族自治州,,37.377,97.369,city-qinghai-8,prefecture-city-qinghai-8,528660,CHN_QH_Xining.528660_TMYx.2011-2025.zip,Xining,36.6644,101.7331,province_capital_fallback
315,宁夏回族自治区,Ningxia,银川市,银川,地级市,640100,Yinchuan,银川市,Yinchuan,38.4874,106.2308,yinchuan,prefecture-yinchuan,536140,CHN_NX_Yinchuan.536140_TMYx.2011-2025.zip,Yinchuan,38.4714,106.2078,direct
316,宁夏回族自治区,Ningxia,石嘴山市,石嘴山,地级市,640200,石嘴山,石嘴山市,,38.9833,106.3828,city-ningxia,prefecture-city-ningxia,536140,CHN_NX_Yinchuan.536140_TMYx.2011-2025.zip,Yinchuan,38.4714,106.2078,city_alias_fallback
317,宁夏回族自治区,Ningxia,吴忠市,吴忠,地级市,640300,吴忠,吴忠市,,37.9975,106.1984,city-ningxia-2,prefecture-city-ningxia-2,536140,CHN_NX_Yinchuan.536140_TMYx.2011-2025.zip,Yinchuan,38.4714,106.2078,city_alias_fallback
318,宁夏回族自治区,Ningxia,固原市,固原,地级市,640400,固原,固原市,,36.0159,106.2426,city-ningxia-3,prefecture-city-ningxia-3,536140,CHN_NX_Yinchuan.536140_TMYx.2011-2025.zip,Yinchuan,38.4714,106.2078,city_alias_fallback
319,宁夏回族自治区,Ningxia,中卫市,中卫,地级市,640500,中卫,中卫市,,37.5,105.1967,city-ningxia-4,prefecture-city-ningxia-4,536140,CHN_NX_Yinchuan.536140_TMYx.2011-2025.zip,Yinchuan,38.4714,106.2078,city_alias_fallback
320,新疆维吾尔自治区,Xinjiang,乌鲁木齐市,乌鲁木齐,地级市,650100,Ürümqi,乌鲁木齐市,Ürümqi,43.71666667,87.63333333,urumqi,prefecture-urumqi,514630,CHN_XJ_Urumqi.514630_CSWD.zip,Urumqi,43.78333,87.65,direct
321,新疆维吾尔自治区,Xinjiang,克拉玛依市,克拉玛依,地级市,650200,Karamay,克拉玛依市,Karamay,45.57913,84.88666,karamay,prefecture-karamay,512430,CHN_XZ_Karamay.512430_TMYx.2011-2025.zip,Karamay,45.6101,84.8454,city_alias_fallback
322,新疆维吾尔自治区,Xinjiang,吐鲁番市,吐鲁番,地级市,650400,Turpan,吐鲁番市,Turpan,42.96361111,89.18527778,turpan,prefecture-turpan,515730,CHN_XZ_Turpan.515730_TMYx.2011-2025.zip,Turpan,42.95,89.2297,city_alias_fallback
323,新疆维吾尔自治区,Xinjiang,哈密市,哈密,地级市,650500,Hami,哈密市,Hami,,,hami,prefecture-hami,522030,CHN_XJ_Hami.522030_CSWD.zip,Hami,42.81667,93.51667,city_alias_fallback
324,新疆维吾尔自治区,Xinjiang,昌吉回族自治州,昌吉回族,自治州,652300,Changji Hui Autonomous Prefecture,昌吉回族自治州,Changji Hui Autonomous Prefecture,,,changji-hui-autonomous-prefecture,prefecture-changji-hui-autonomous-prefecture,514630,CHN_XJ_Urumqi.514630_CSWD.zip,Urumqi,43.78333,87.65,province_capital_fallback
325,新疆维吾尔自治区,Xinjiang,博尔塔拉蒙古自治州,博尔塔拉蒙古,自治州,652700,Bortala Mongol Autonomous Prefecture,博尔塔拉蒙古自治州,Bortala Mongol Autonomous Prefecture,,,bortala-mongol-autonomous-prefecture,prefecture-bortala-mongol-autonomous-prefecture,513300,CHN_XZ_Bortala.513300_TMYx.zip,Bortala,44.917,82.067,direct
326,新疆维吾尔自治区,Xinjiang,巴音郭楞蒙古自治州,巴音郭楞蒙古,自治州,652800,Bayingolin Mongol Autonomous Prefecture,巴音郭楞蒙古自治州,Bayingolin Mongol Autonomous Prefecture,,,bayingolin-mongol-autonomous-prefecture,prefecture-bayingolin-mongol-autonomous-prefecture,514630,CHN_XJ_Urumqi.514630_CSWD.zip,Urumqi,43.78333,87.65,province_capital_fallback
327,新疆维吾尔自治区,Xinjiang,阿克苏地区,阿克苏,地区,652900,Aksu Prefecture,阿克苏地区,Aksu Prefecture,41.16666667,80.25,aksu-prefecture,prefecture-aksu-prefecture,516280,CHN_XJ_Aksu.516280_CSWD.zip,Aksu,41.16667,80.23333,direct
328,新疆维吾尔自治区,Xinjiang,克孜勒苏柯尔克孜自治州,克孜勒苏柯尔克孜,自治州,653000,Kizilsu Kyrgyz Autonomous Prefecture,克孜勒苏柯尔克孜自治州,Kizilsu Kyrgyz Autonomous Prefecture,39.7146,76.1678,kizilsu-kyrgyz-autonomous-prefecture,prefecture-kizilsu-kyrgyz-autonomous-prefecture,514630,CHN_XJ_Urumqi.514630_CSWD.zip,Urumqi,43.78333,87.65,province_capital_fallback
329,新疆维吾尔自治区,Xinjiang,喀什地区,喀什,地区,653100,Kashgar Prefecture,喀什地区,Kashgar Prefecture,,,kashgar-prefecture,prefecture-kashgar-prefecture,514630,CHN_XJ_Urumqi.514630_CSWD.zip,Urumqi,43.78333,87.65,province_capital_fallback
330,新疆维吾尔自治区,Xinjiang,和田地区,和田,地区,653200,Hotan Prefecture,和田地区,Hotan Prefecture,,,hotan-prefecture,prefecture-hotan-prefecture,518280,CHN_XZ_Hotan.518280_TMYx.2011-2025.zip,Hotan,37.1333,79.9333,direct
331,新疆维吾尔自治区,Xinjiang,伊犁哈萨克自治州,伊犁哈萨克,自治州,654000,伊犁哈萨克,伊犁哈萨克自治州,,,,city-xinjiang,prefecture-city-xinjiang,514630,CHN_XJ_Urumqi.514630_CSWD.zip,Urumqi,43.78333,87.65,province_capital_fallback
332,新疆维吾尔自治区,Xinjiang,塔城地区,塔城,地区,654200,塔城,塔城地区,,,,city-xinjiang-2,prefecture-city-xinjiang-2,514630,CHN_XJ_Urumqi.514630_CSWD.zip,Urumqi,43.78333,87.65,province_capital_fallback
333,新疆维吾尔自治区,Xinjiang,阿勒泰地区,阿勒泰,地区,654300,阿勒泰,阿勒泰地区,,,,city-xinjiang-3,prefecture-city-xinjiang-3,514630,CHN_XJ_Urumqi.514630_CSWD.zip,Urumqi,43.78333,87.65,province_capital_fallback
